[{"type": "node", "id": 264793364, "lat": 47.415612, "lon": 8.621313, "tags": {"addr:city": "Dietlikon", "addr:housenumber": "7", "addr:postcode": "8305", "addr:street": "Neue Winterthurerstrasse", "alt_name": "Media Markt Dietlikon", "branch": "Dietlikon", "brand": "Media Markt", "brand:wikidata": "Q2381223", "brand:wikipedia": "en:Media Markt", "level": "2", "name": "Media Markt", "opening_hours": "Mo-Sa 10:00-20:00", "operator": "Media Markt Schweiz", "shop": "electronics", "website": "https://www.mediamarkt.ch/"}}, {"type": "node", "id": 289891415, "lat": 47.4208547, "lon": 8.3940584, "tags": {"addr:city": "Dietikon", "addr:housenumber": "5", "addr:postcode": "8953", "addr:street": "Riedstrasse", "alt_name": "Media Markt Dietikon", "branch": "Dietikon", "brand": "Media Markt", "brand:wikidata": "Q2381223", "level": "0", "name": "Media Markt", "opening_hours": "Mo-Fr 09:30-20:00;Sa 09:00-20:00;PH closed", "operator": "Media Markt Schweiz", "shop": "electronics", "website": "https://www.mediamarkt.ch/", "wheelchair": "yes"}}, {"type": "node", "id": 301222858, "lat": 47.3726689, "lon": 8.5266427, "tags": {"addr:city": "Z\u00fcrich", "addr:country": "CH", "addr:housenumber": "20", "addr:postcode": "8004", "addr:street": "Birmensdorferstrasse", "alt_name": "Fust Center Eschenmoser", "branch": "Z\u00fcrich Birmensdorferstrasse", "brand:wikidata": "Q1227164", "check_date:opening_hours": "2022-11-02", "name": "Fust Center Eschenmoser", "opening_hours": "Mo-Fr 09:00-18:30; Sa 09:00-17:00", "operator": "Dipl. Ing. Fust AG", "shop": "electronics", "website": "https://www.fust.ch/", "wheelchair": "yes"}}, {"type": "node", "id": 301222947, "lat": 47.377878, "lon": 8.52586, "tags": {"name": "Pusterla Elektronik AG", "opening_hours": "Mo-Fr 09:00-18:30; Sa 09:00-16:00", "shop": "electronics", "website": "http://www.pusterla.ch", "wheelchair": "limited"}}, {"type": "node", "id": 305000498, "lat": 47.3741322, "lon": 8.5244471, "tags": {"addr:city": "Z\u00fcrich", "addr:country": "CH", "addr:housenumber": "109", "addr:postcode": "8004", "addr:street": "Badenerstrasse", "alt_name": "Fust Badenerstrasse", "branch": "Z\u00fcrich Badenerstrasse", "brand:wikidata": "Q1227164", "check_date:opening_hours": "2021-05-09", "name": "Fust", "opening_hours": "Mo-Fr 09:00-18:30; Sa 09:00-16:00", "operator": "Dipl. Ing. Fust AG", "shop": "electronics", "website": "https://www.fust.ch/", "wheelchair": "yes"}}, {"type": "node", "id": 308058574, "lat": 47.3906821, "lon": 8.5149569, "tags": {"addr:city": "Z\u00fcrich", "addr:country": "CH", "addr:housenumber": "60b", "addr:postcode": "8005", "addr:street": "Pfingstweidstrasse", "alt_name": "Digitec Z\u00fcrich", "branch": "Z\u00fcrich", "brand": "Digitec Galaxus", "brand:wikidata": "Q1225079", "name": "Digitec", "opening_hours": "Mo-Fr 09:00-19:00; Sa 09:00-17:00", "operator": "Digitec Galaxus", "shop": "electronics", "website": "https://www.digitec.ch/", "wheelchair": "yes"}}, {"type": "node", "id": 366036773, "lat": 46.6887469, "lon": 7.6789924, "tags": {"brand": "Interdiscount", "brand:wikidata": "Q1665980", "brand:wikipedia": "de:Interdiscount", "name": "Interdiscount", "opening_hours": "Mo-Fr 09:00-12:15,13:30-18:30; Sa 09:00-17:00", "operator": "Interdiscount", "shop": "electronics", "wheelchair": "yes"}}, {"type": "node", "id": 409815800, "lat": 47.0672642, "lon": 7.5998994, "tags": {"name": "Fust AG", "operator": "Fust", "shop": "electronics"}}, {"type": "node", "id": 411760524, "lat": 47.4970269, "lon": 8.7150507, "tags": {"addr:city": "Winterthur", "addr:housenumber": "42", "addr:postcode": "8400", "addr:street": "Z\u00fcrcherstrasse", "alt_name": "Digitec Winterthur", "branch": "Winterthur", "brand": "Digitec Galaxus", "brand:wikidata": "Q1225079", "level": "0", "name": "Digitec", "opening_hours": "Mo-Fr 10:00-19:00; Sa 09:00-16:00", "operator": "Digitec Galaxus", "shop": "electronics", "website": "https://www.digitec.ch/", "wheelchair": "limited"}}, {"type": "node", "id": 415256810, "lat": 46.007794, "lon": 8.9523306, "tags": {"brand": "Interdiscount", "brand:wikidata": "Q1665980", "brand:wikipedia": "de:Interdiscount", "name": "Interdiscount", "operator": "Interdiscount", "shop": "electronics", "wheelchair": "yes"}}, {"type": "node", "id": 415257363, "lat": 45.973635, "lon": 8.9268332, "tags": {"brand": "Media Markt", "brand:wikidata": "Q2381223", "brand:wikipedia": "en:Media Markt", "name": "Media Markt", "operator": "Media Word", "shop": "electronics"}}, {"type": "node", "id": 417797003, "lat": 46.9909018, "lon": 6.9298709, "tags": {"name": "Interdiscount", "opening_hours": "Mo-Fr 09:00-19:00; Sa 09:00-18:00", "shop": "electronics", "wheelchair": "limited"}}, {"type": "node", "id": 418399381, "lat": 47.5648541, "lon": 9.0982997, "tags": {"name": "Fust", "shop": "electronics", "wheelchair": "yes"}}, {"type": "node", "id": 419343415, "lat": 46.7043825, "lon": 8.8527073, "tags": {"name": "Arco", "shop": "electronics"}}, {"type": "node", "id": 429222612, "lat": 47.1962719, "lon": 8.5289684, "tags": {"addr:city": "Baar", "addr:housenumber": "3", "addr:postcode": "5340", "addr:street": "Oberdorfstrasse", "level": "0", "name": "Satonline GmbH", "opening_hours": "Mo-Fr 09:00-12:00, 13:30-18:30", "opening_hours:covid19": "open", "payment:american_express": "yes", "payment:cash": "yes", "payment:credit_cards": "yes", "payment:debit_cards": "yes", "payment:maestro": "yes", "payment:mastercard": "yes", "payment:visa": "yes", "shop": "electronics", "website": "https://www.sat-online.ch"}}, {"type": "node", "id": 431038922, "lat": 46.502449, "lon": 6.6850938, "tags": {"addr:city": "Lutry", "addr:housenumber": "21", "addr:postcode": "1095", "addr:street": "Grand'Rue", "name": "T\u00e9l\u00e9 Dorthe", "shop": "electronics"}}, {"type": "node", "id": 450212028, "lat": 47.0409139, "lon": 7.3781707, "tags": {"check_date:opening_hours": "2022-06-02", "email": "info@elektro-gerber-schuepfen.ch", "name": "Elektro Gerber", "opening_hours": "Tu,Th,Fr 08:30-12:00,14:00-18:00; We 08:30-12:00", "phone": "+41 31 879 02 54", "shop": "electronics", "website": "https://www.elektro-gerber-schuepfen.ch/"}}, {"type": "node", "id": 455972587, "lat": 46.0241402, "lon": 8.9668373, "tags": {"name": "CIPI", "shop": "electronics"}}, {"type": "node", "id": 461085161, "lat": 47.4197325, "lon": 8.3946726, "tags": {"addr:city": "Dietikon", "addr:housenumber": "8", "addr:postcode": "8953", "addr:street": "Riedstrasse", "alt_name": "Digitec Dietikon", "branch": "Dietikon", "brand": "Digitec Galaxus", "brand:wikidata": "Q1225079", "name": "Digitec", "opening_hours": "Mo-Fr 10:00-19:00;Sa 09:00-17:00;PH closed", "operator": "Digitec Galaxus", "shop": "electronics", "website": "https://www.digitec.ch/", "wheelchair": "yes"}}, {"type": "node", "id": 461085422, "lat": 47.419626, "lon": 8.3942415, "tags": {"addr:housenumber": "6", "addr:street": "Riedstrasse", "alt_name": "Fust Dietikon", "branch": "Dietikon", "brand:wikidata": "Q1227164", "level": "0", "name": "Fust", "operator": "Dipl. Ing. Fust AG", "shop": "electronics", "wheelchair": "yes"}}, {"type": "node", "id": 473477852, "lat": 46.9930952, "lon": 6.9281895, "tags": {"name": "Video 2000", "shop": "electronics"}}, {"type": "node", "id": 473593512, "lat": 47.4213072, "lon": 9.3727314, "tags": {"name": "Foto Mayer AG", "shop": "electronics", "url": "http://www.mayerag.ch/", "website": "http://www.mayerag.ch/", "wheelchair": "yes"}}, {"type": "node", "id": 481899717, "lat": 46.9412312, "lon": 7.462343, "tags": {"alt_name": "BelCom Elektro - Beleuchtungen, Elektroinstallationen", "contact:addr": "Thunstrasse 89, 3006 Bern", "contact:email": "info@belcom.org", "contact:fax": "+41 31 3515969", "contact:phone": "+41 31 3510100", "name": "BelCom", "opening_hours": "Mo-Fr 07:00-12:00, 13:00-18:00; Sa-Su off", "operator": "BelCom Elektro GmbH", "shop": "electronics", "source": "website and survey", "website": "https://www.belcom-bern.ch"}}, {"type": "node", "id": 492221016, "lat": 47.5377262, "lon": 7.730229, "tags": {"addr:city": "Kaiseraugst", "addr:housenumber": "1", "addr:postcode": "4303", "addr:street": "Junkholzweg", "branch": "Kaiseraugst", "brand": "Fust", "brand:wikidata": "Q1227164", "brand:wikipedia": "de:Dipl. Ing. Fust", "level": "1", "name": "Fust", "opening_hours": "Mo-Fr 08:30-19:00, Sa 08:00-18:00", "operator": "Dipl. Ing. Fust AG", "shop": "electronics", "wheelchair": "yes"}}, {"type": "node", "id": 515638764, "lat": 46.9263589, "lon": 7.5037101, "tags": {"addr:city": "Muri b. Bern", "addr:housenumber": "30", "addr:postcode": "3073", "addr:street": "Feldstrasse", "alt_name": "Media Markt Muri", "branch": "Muri bei Bern", "brand": "Media Markt", "brand:wikidata": "Q2381223", "name": "Media Markt", "operator": "Media Markt Schweiz", "shop": "electronics", "website": "https://www.mediamarkt.ch/", "wheelchair": "yes"}}, {"type": "node", "id": 563313666, "lat": 47.3969031, "lon": 8.617142, "tags": {"addr:housenumber": "2", "addr:street": "Wilstrasse", "branch": "D\u00fcbendorf", "brand:wikidata": "Q1227164", "name": "Fust", "opening_hours": "Mo-Fr 09:00-12:00,13:00-18:30; Sa 09:00-17:00; PH closed", "operator": "Dipl. Ing. Fust AG", "shop": "electronics", "wheelchair": "yes"}}, {"type": "node", "id": 566646699, "lat": 46.5221677, "lon": 6.6289025, "tags": {"addr:housenumber": "8", "addr:street": "Place Bel Air", "brand": "Interdiscount", "brand:wikidata": "Q1665980", "brand:wikipedia": "de:Interdiscount", "check_date:opening_hours": "2022-09-04", "description": "Magasin informatique et \u00e9lectrom\u00e9nager", "name": "Interdiscount", "opening_hours": "Mo-Fr 09:00-19:00; Sa 09:00-18:00", "shop": "electronics", "website": "https://www.interdiscount.ch/", "wheelchair": "yes"}}, {"type": "node", "id": 568000408, "lat": 47.4998918, "lon": 8.7302101, "tags": {"addr:city": "Winterthur", "addr:country": "CH", "addr:housenumber": "14", "addr:postcode": "8400", "addr:street": "Marktgasse", "name": "revendo", "opening_hours": "Sa 09:00-17:00", "repair": "yes", "second_hand": "only", "shop": "electronics", "website": "https://revendo.ch/"}}, {"type": "node", "id": 601509919, "lat": 46.9586304, "lon": 7.4539771, "tags": {"contact:addr": "Breitenrainplatz 42, 3014 Bern", "contact:email": "elektro@nyffeler-kaestli.ch", "contact:fax": "+41 31 3319856", "contact:phone": "+41 31 3319855", "contact:website": "https://nyffeler-kaestli.ch/kontakt", "name": "Nyffeler-K\u00e4stli Elektro", "operator": "Nyffeler-K\u00e4stli Elektro AG", "shop": "electronics", "website": "https://nyffeler-kaestli.ch"}}, {"type": "node", "id": 614862171, "lat": 46.962729, "lon": 7.4644202, "tags": {"addr:city": "Bern", "addr:country": "CH", "addr:housename": "Wankdorf Center", "addr:postcode": "3014", "addr:street": "Papierm\u00fchlestrasse", "brand": "Interdiscount", "brand:wikidata": "Q1665980", "name": "Interdiscount", "opening_hours": "Mo-Th 09:00-20:00; Fr 09:00-21:00; Sa 09:00-17:00", "shop": "electronics", "wheelchair": "yes"}}, {"type": "node", "id": 615038966, "lat": 46.9655134, "lon": 7.4588541, "tags": {"addr:city": "Bern", "addr:housenumber": "90", "addr:postcode": "3014", "addr:street": "Wankdorffeldstrasse", "alt_name": "melectronics Wankdorf", "branch": "Bern Wankdorf MParc", "level": "0", "name": "melectronics", "opening_hours": "Mo-We 09:00-19:00, Th-Fr 09:00-20:00, Sa 08:00-17:00; PH off", "operator": "Genossenschaft Migros Aare", "shop": "electronics", "website": "https://www.melectronics.ch/", "wheelchair": "yes"}}, {"type": "node", "id": 623846819, "lat": 47.4201956, "lon": 8.3951247, "tags": {"addr:city": "Dietikon", "addr:housenumber": "12", "addr:postcode": "8953", "addr:street": "Riedstrasse", "branch": "Dietikon", "brand": "STEG", "brand:wikidata": "Q783607", "level": "0", "name": "STEG Electronics", "opening_hours": "Mo-Fr 09:00-18:30;Sa 09:00-16:00;PH closed", "operator": "STEG Electronics", "shop": "electronics", "website": "https://steg.services/standorte/dietikon/", "wheelchair": "yes"}}, {"type": "node", "id": 623851522, "lat": 47.4105317, "lon": 8.2237078, "tags": {"addr:city": "M\u00e4genwil", "addr:housenumber": "3", "addr:postcode": "5506", "addr:street": "Hinterm\u00e4ttlistrasse", "email": "info@brack.ch", "fax": "+41 62 889 80 81", "level": "2", "name": "BRACK.CH", "operator": "BRACK.CH AG", "phone": "+41 62 889 80 80", "shop": "electronics", "website": "https://brack.ch", "wheelchair": "yes"}}, {"type": "node", "id": 633584185, "lat": 47.3785558, "lon": 8.5479545, "tags": {"addr:housenumber": "13", "addr:street": "Universit\u00e4tstrasse", "check_date:opening_hours": "2022-08-30", "name": "K55", "opening_hours": "Mo-Fr 10:00-18:30; Sa 10:00-17:00", "shop": "electronics", "website": "https://www.k55.ch/", "wheelchair": "no"}}, {"type": "node", "id": 635722960, "lat": 46.9370343, "lon": 7.4397159, "tags": {"contact:email": "info@friedli-elektro.ch", "contact:fax": "+41 31 3700001", "contact:housenumber": "7", "contact:phone": "+41 31 3700000", "contact:street": "Landoltstrasse", "craft": "electrician", "name": "Friedli Elektro", "opening_hours": "Mo-Th 07:30-11:45,13:30-16:30; Fr 07:30-11:45,13:30-16:00", "operator": "Friedli Elektro Bern AG", "shop": "electronics", "source": "survey and website", "website": "https://www.friedli-elektro.ch/"}}, {"type": "node", "id": 659857328, "lat": 47.456309, "lon": 8.286848, "tags": {"addr:city": "D\u00e4ttwil", "addr:housenumber": "22", "addr:postcode": "5405", "addr:street": "Im Langacker", "alt_name": "Interdiscount D\u00e4ttwil", "branch": "D\u00e4ttwil", "brand": "Interdiscount", "brand:wikidata": "Q1665980", "name": "Interdiscount", "operator": "Coop Genossenschaft", "shop": "electronics", "website": "https://www.interdiscount.ch/"}}, {"type": "node", "id": 664729227, "lat": 47.029415, "lon": 8.2976124, "tags": {"addr:city": "Kriens", "addr:housenumber": "5", "addr:postcode": "6010", "addr:street": "Nidfeldstrasse", "alt_name": "Digitec Kriens", "branch": "Kriens", "brand": "Digitec Galaxus", "brand:wikidata": "Q1225079", "name": "Digitec", "opening_hours": "Mo-Tu 09:30-18:30; We 09:30-20:00; Th 09:30-18:30; Fr 09:30-20:00; Sa 09:00-16:00", "operator": "Digitec Galaxus", "shop": "electronics", "url": "http://www.digitec.ch", "website": "https://www.digitec.ch/"}}, {"type": "node", "id": 666971693, "lat": 47.4659642, "lon": 8.3260606, "tags": {"addr:housenumber": "90", "addr:street": "Landstrasse", "branch": "Wettingen Landstrasse", "brand": "Fust", "brand:wikidata": "Q1227164", "level": "0", "name": "Fust", "opening_hours": "Mo-Fr 09:00-18:30; Sa 09:00-17:00; PH closed", "operator": "Dipl. Ing. Fust AG", "shop": "electronics", "wheelchair": "yes"}}, {"type": "node", "id": 676932796, "lat": 47.4661325, "lon": 8.3263183, "tags": {"addr:city": "Wettingen", "addr:country": "CH", "addr:housenumber": "89", "addr:postcode": "5430", "addr:street": "Landstrasse", "name": "EWW", "shop": "electronics", "wheelchair": "no"}}, {"type": "node", "id": 692306006, "lat": 47.3918498, "lon": 8.0453682, "tags": {"addr:city": "Aarau", "addr:housenumber": "29", "addr:postcode": "5000", "addr:street": "Graben", "alt_name": "Interdiscount Aarau XXL", "branch": "Aarau", "brand": "Interdiscount", "brand:wikidata": "Q1665980", "level": "-1;0", "name": "Interdiscount XXL", "opening_hours": "Mo-Fr 09:00-19:00; Th 09:00-20:00; Sa 08:00-18:00; Su off", "operator": "Coop Genossenschaft", "shop": "electronics", "website": "https://www.interdiscount.ch/"}}, {"type": "node", "id": 704358791, "lat": 47.3458214, "lon": 7.9101525, "tags": {"addr:city": "Olten", "addr:housenumber": "25", "addr:postcode": "4600", "addr:street": "Louis-Giroud-Strasse", "alt_name": "melectronics S\u00e4lipark", "branch": "Olten S\u00e4lipark MParc", "brand": "melectronics", "name": "melectronics", "operator": "Genossenschaft Migros Aare", "shop": "electronics", "website": "https://www.melectronics.ch/"}}, {"type": "node", "id": 705146313, "lat": 47.1198787, "lon": 7.2678961, "tags": {"name": "Media Markt", "operator": "Media Markt", "shop": "electronics", "wheelchair": "yes"}}, {"type": "node", "id": 711672635, "lat": 47.1195341, "lon": 7.2677759, "tags": {"name": "melectronics", "operator": "Migros Aare", "shop": "electronics", "wheelchair": "yes"}}, {"type": "node", "id": 762749343, "lat": 47.498005, "lon": 8.7301718, "tags": {"addr:city": "Winterthur", "addr:country": "CH", "addr:housenumber": "16", "addr:postcode": "8400", "addr:street": "Technikumstrasse", "name": "Tawa Elektroger\u00e4te", "shop": "electronics", "wheelchair": "limited"}}, {"type": "node", "id": 771144790, "lat": 47.0072372, "lon": 9.5028543, "tags": {"name": "EWR Elektro AG", "shop": "electronics"}}, {"type": "node", "id": 775502108, "lat": 46.7419024, "lon": 7.2860402, "tags": {"name": "SenSat AG", "shop": "electronics", "website": "http://www.sensat.ch", "wheelchair": "no"}}, {"type": "node", "id": 793241864, "lat": 46.7622649, "lon": 7.2084298, "tags": {"addr:city": "Giffers", "addr:country": "CH", "addr:housenumber": "17", "addr:postcode": "1735", "addr:street": "Dorfstrasse", "name": "Video TV Sahli GmbH", "shop": "electronics", "website": "http://www.video-tv-sahli.ch", "wheelchair": "yes"}}, {"type": "node", "id": 796771344, "lat": 47.3061662, "lon": 8.8178984, "tags": {"addr:city": "Hinwil", "addr:housenumber": "38", "addr:postcode": "8340", "addr:street": "W\u00e4sseristrasse", "alt_name": "Interdiscount Hinwil", "branch": "Hinwil", "brand": "Interdiscount", "brand:wikidata": "Q1665980", "name": "Interdiscount", "operator": "Coop Genossenschaft", "shop": "electronics", "website": "https://www.interdiscount.ch/", "wheelchair": "yes"}}, {"type": "node", "id": 800123119, "lat": 47.536741, "lon": 7.6074905, "tags": {"addr:housenumber": "9", "addr:street": "Leimgrubenweg", "branch": "Basel", "brand": "STEG", "brand:wikidata": "Q783607", "name": "STEG Electronics", "operator": "STEG Electronics", "shop": "electronics"}}, {"type": "node", "id": 821489104, "lat": 46.9474511, "lon": 7.4365015, "tags": {"check_date": "2022-11-18", "contact:addr": "Laupenstrasse 6, 3008 Bern", "contact:email": "127@fust.ch", "contact:fax": "+41 31 3806044", "contact:phone": "+41 31 3806040", "name": "Fust Center Eschenmoser", "old_name": "Eschenmoser", "opening_hours": "Mo-Fr 09:00-18:30; Sa 09:00-17:00", "operator": "Dipl. Ing. Fust AG", "shop": "electronics", "source": "website and survey", "website": "https://www.fust.ch/de/filialensuche.html", "wheelchair": "no"}}, {"type": "node", "id": 823581588, "lat": 47.1277068, "lon": 8.7436912, "tags": {"addr:housenumber": "2", "addr:street": "Bahnhofplatz", "name": "EKZ Eltop", "operator": "Elektrizit\u00e4tswerke Kanton Z\u00fcrich", "shop": "electronics", "website": "https://www.ekz.ch/"}}, {"type": "node", "id": 823581614, "lat": 47.1291622, "lon": 8.7409143, "tags": {"addr:city": "Einsiedeln", "addr:country": "CH", "addr:housenumber": "13", "addr:postcode": "8840", "addr:street": "Spitalstrasse", "name": "Elektro K\u00e4lin", "shop": "electronics", "website": "http://www.elektro-kaelin.ch/"}}, {"type": "node", "id": 823581696, "lat": 47.1271428, "lon": 8.7457817, "tags": {"addr:city": "Einsiedeln", "addr:country": "CH", "addr:housenumber": "1", "addr:postcode": "8840", "addr:street": "Schwanenstrasse", "email": "info@schoenbaechler-elektro.ch", "name": "Sch\u00f6nb\u00e4chler", "phone": "+41 55 418 80 90", "shop": "electronics", "website": "http://www.sch\u00f6nb\u00e4chler-elektro.ch"}}, {"type": "node", "id": 877487981, "lat": 46.9554876, "lon": 7.4838107, "tags": {"addr:city": "Ostermundigen", "name": "Interdiscount", "opening_hours": "Mo-Fr 09:00-19:00; Sa 09:00-17:00; Su off", "payment:cash": "yes", "payment:coins": "yes", "payment:credit_cards": "yes", "shop": "electronics"}}, {"type": "node", "id": 895750434, "lat": 47.3711353, "lon": 8.5438585, "tags": {"name": "Hickel", "shop": "electronics", "wheelchair": "no"}}, {"type": "node", "id": 899288490, "lat": 46.956866, "lon": 7.4359982, "tags": {"addr:city": "Bern", "addr:country": "CH", "addr:housenumber": "37", "addr:postcode": "3012", "addr:street": "Berchtoldstrasse", "contact:email": "info@rolfgerber.ch", "contact:fax": "+41 31 3027462", "contact:phone": "+41 31 3077676", "craft": "electrician", "name": "Rolf Gerber Elektro", "operator": "Rolf Gerber AG", "shop": "electronics", "source": "survey and website", "website": "https://www.rolfgerber.ch/"}}, {"type": "node", "id": 926918961, "lat": 47.4104578, "lon": 8.5457352, "tags": {"addr:city": "Z\u00fcrich", "addr:country": "CH", "addr:housenumber": "11", "addr:place": "Z\u00fcri11 Shopping", "addr:postcode": "8050", "addr:street": "Ohmstrasse", "alt_name": "Fust Oerlikon", "branch": "Z\u00fcrich Oerlikon", "brand:wikidata": "Q1227164", "level": "0", "name": "Fust", "opening_hours": "Mo-Fr 09:00-20:00; Sa 09:00-18:00", "operator": "Dipl. Ing. Fust AG", "shop": "electronics", "website": "https://www.fust.ch/"}}, {"type": "node", "id": 939538339, "lat": 47.1820122, "lon": 8.4612564, "tags": {"addr:city": "Cham", "addr:housenumber": "15-17", "addr:postcode": "6330", "addr:street": "Zugerstrasse", "alt_name": "Interdiscount Cham", "branch": "Cham", "brand": "Interdiscount", "brand:wikidata": "Q1665980", "level": "0", "name": "Interdiscount", "opening_hours": "Mo-Th 9:00-18:30; Fr 09:00-20:00; Sa 8:00-17:00;PH off", "opening_hours:covid19": "off", "operator": "Coop Genossenschaft", "shop": "electronics", "website": "https://www.interdiscount.ch/", "wheelchair": "yes"}}, {"type": "node", "id": 945015629, "lat": 47.3000892, "lon": 9.0867897, "tags": {"addr:city": "Wattwil", "addr:housenumber": "13", "addr:postcode": "9630", "addr:street": "Bahnhofstrasse", "alt_name": "Interdiscount Wattwil", "branch": "Wattwil", "brand": "Interdiscount", "brand:wikidata": "Q1665980", "name": "Interdiscount", "operator": "Coop Genossenschaft", "shop": "electronics", "website": "https://www.interdiscount.ch/"}}, {"type": "node", "id": 972121375, "lat": 47.3516684, "lon": 7.9024406, "tags": {"addr:city": "Olten", "addr:housenumber": "37", "addr:postcode": "4600", "addr:street": "Baslerstrasse", "alt_name": "Interdiscount Olten Altstadt", "branch": "Olten Baslerstrasse", "brand": "Interdiscount", "brand:wikidata": "Q1665980", "name": "Interdiscount", "opening_hours": "Mo 10:00-18:30;Tu-We,Fr 09:00-18:30; Th 09:00-20:00; Sa 09:00-17:00", "operator": "Coop Genossenschaft", "shop": "electronics", "website": "https://www.interdiscount.ch/", "wheelchair": "limited"}}, {"type": "node", "id": 977406556, "lat": 46.8188162, "lon": 7.153034, "tags": {"addr:city": "Granges-Paccot", "addr:housename": "MediaMarkt", "addr:housenumber": "1", "addr:postcode": "1763", "addr:street": "Route de Morat", "brand": "Media Markt", "brand:wikidata": "Q2381223", "brand:wikipedia": "en:Media Markt", "level": "1", "name": "Media Markt", "shop": "electronics", "website": "https://www.mediamarkt.ch", "wheelchair": "yes"}}, {"type": "node", "id": 977406560, "lat": 46.8197651, "lon": 7.153785, "tags": {"brand": "Interdiscount", "brand:wikidata": "Q1665980", "brand:wikipedia": "de:Interdiscount", "name": "Interdiscount", "opening_hours": "Mo-We 09:00-19:00; Th 09:00-21:00; Fr 09:00-19:00; Sa 08:30-16:00; Su off", "shop": "electronics", "website": "https://www.interdiscount.ch/", "wheelchair": "yes"}}, {"type": "node", "id": 1032302012, "lat": 47.0039115, "lon": 7.4439218, "tags": {"addr:city": "Zollikofen", "addr:housenumber": "14", "addr:postcode": "3052", "addr:street": "Tannholzstrasse", "name": "STEG", "opening_hours": "Mo-Fr 09:00-18:30, Sa 09:00-16:00; PH off", "operator": "STEG Electronics AG", "shop": "electronics", "website": "https://www.steg-electronics.ch", "wheelchair": "yes"}}, {"type": "node", "id": 1055498426, "lat": 46.9932366, "lon": 6.9306968, "tags": {"name": "Video2000", "shop": "electronics"}}, {"type": "node", "id": 1068380963, "lat": 46.0809217, "lon": 7.2140094, "tags": {"shop": "electronics", "wheelchair": "limited"}}, {"type": "node", "id": 1072834756, "lat": 47.3513179, "lon": 8.3478018, "tags": {"addr:housenumber": "4", "addr:street": "Sonnengutstrasse", "branch": "Bremgarten", "brand:wikidata": "Q1227164", "level": "0", "name": "Fust", "opening_hours": "Mo-Th 08:00-19:00; Fr 08:00-20:00; Sa 08:00-18:00; PH closed", "operator": "Dipl. Ing. Fust AG", "shop": "electronics", "wheelchair": "limited"}}, {"type": "node", "id": 1092027231, "lat": 47.4098463, "lon": 9.6250182, "tags": {"addr:city": "Heerbrugg", "addr:country": "CH", "addr:housenumber": "203", "addr:postcode": "9435", "addr:street": "Balgacherstrasse", "branch": "Heerbrugg", "brand": "Interdiscount", "brand:wikidata": "Q1665980", "brand:wikipedia": "de:Interdiscount", "name": "Interdiscount", "opening_hours": "Mo-Th 08:00-19:00; Fr 08:00-20:00; Sa 08:00-17:00; Su off", "operator": "Interdiscount", "phone": "+41717225032", "shop": "electronics", "website": "https://www.interdiscount.ch/"}}, {"type": "node", "id": 1097017242, "lat": 47.4074627, "lon": 9.6297043, "tags": {"addr:city": "Widnau", "addr:housenumber": "2", "addr:postcode": "9443", "addr:street": "Bahnhofstrasse", "brand": "Interdiscount", "brand:wikidata": "Q1665980", "brand:wikipedia": "de:Interdiscount", "name": "Interdiscount", "opening_hours": "Mo-Th 08:00-19:00; Fr 08:00-20:00; Sa 08:00-17:00", "phone": "+41 71 722 77 81", "shop": "electronics", "website": "https://www.interdiscount.ch/", "wheelchair": "yes"}}, {"type": "node", "id": 1103883176, "lat": 47.3502737, "lon": 8.2738311, "tags": {"addr:housenumber": "52a", "addr:street": "Zentralstrasse", "branch": "Wohlen", "brand": "Fust", "brand:wikidata": "Q1227164", "name": "Fust", "operator": "Dipl. Ing. Fust AG", "shop": "electronics"}}, {"type": "node", "id": 1103883270, "lat": 47.3522396, "lon": 8.2612038, "tags": {"addr:city": "Wohlen", "addr:housenumber": "21", "addr:postcode": "5610", "addr:street": "Industriestrasse", "alt_name": "Digitec Wohlen", "branch": "Wohlen", "brand": "Digitec Galaxus", "brand:wikidata": "Q1225079", "name": "Digitec", "opening_hours": "Mo-Fr 10:00-19:00; Sa 09:00-17:00", "operator": "Digitec Galaxus", "shop": "electronics", "website": "https://www.digitec.ch/"}}, {"type": "node", "id": 1103883410, "lat": 47.3503736, "lon": 8.2711927, "tags": {"addr:city": "Wohlen", "addr:housenumber": "59", "addr:postcode": "5610", "addr:street": "Zentralstrasse", "alt_name": "Interdiscount Wohlen", "branch": "Wohlen", "brand": "Interdiscount", "brand:wikidata": "Q1665980", "brand:wikipedia": "de:Interdiscount", "level": "0", "name": "Interdiscount", "opening_hours": "Mo-Th 09:00-18:30; Fr 09:00-20:00; Sa 08:30-17:00; PH closed", "operator": "Coop Genossenschaft", "shop": "electronics", "website": "https://www.interdiscount.ch/", "wheelchair": "yes"}}, {"type": "node", "id": 1110775436, "lat": 47.3768034, "lon": 8.5413559, "tags": {"name": "DQ Solutions", "opening_hours": "Mo-Fr 09:00-19:00; Sa 09:00-18:00", "shop": "electronics", "wheelchair": "no"}}, {"type": "node", "id": 1117500723, "lat": 46.5179059, "lon": 6.6338779, "tags": {"name": "Dupertuis \u00e9lectronique", "shop": "electronics"}}, {"type": "node", "id": 1128600389, "lat": 46.8446938, "lon": 7.1912079, "tags": {"email": "info@crottet.ch", "fax": "+41 26 492 90 99", "name": "Crottet Elektrogesch\u00e4ft", "opening_hours": "Mo-Fr 08:00-12:00,13:30-18:00; Sa 08:00-16:00; Su off", "operator": "Crottet AG", "phone": "+41 26 492 90 90", "shop": "electronics", "website": "http://www.crottet.ch"}}, {"type": "node", "id": 1128600466, "lat": 46.8447812, "lon": 7.1912107, "tags": {"name": "Lehmannvision", "opening_hours": "Mo-Fr 08:00-12:00,13:15-18:30;Sa 08:00-16:00;Su off", "shop": "electronics"}}, {"type": "node", "id": 1230801020, "lat": 46.5176847, "lon": 6.6286063, "tags": {"brand": "Interdiscount", "brand:wikidata": "Q1665980", "brand:wikipedia": "de:Interdiscount", "name": "Interdiscount", "opening_hours": "Mo-Fr 08:30-18:30; Sa 08:30-17:00", "shop": "electronics", "wheelchair": "limited"}}, {"type": "node", "id": 1256568287, "lat": 47.0208021, "lon": 7.4513711, "tags": {"name": "Lanz Elektronik", "shop": "electronics"}}, {"type": "node", "id": 1289493674, "lat": 46.9216288, "lon": 7.413078, "tags": {"name": "Salvisberg", "shop": "electronics"}}, {"type": "node", "id": 1305672715, "lat": 47.3778233, "lon": 8.5100588, "tags": {"addr:city": "Z\u00fcrich", "addr:country": "CH", "addr:housenumber": "300", "addr:postcode": "8003", "addr:street": "Zurlindenstrasse", "alt_name": "Interdiscount Albisriederplatz", "branch": "Z\u00fcrich Albisriederplatz", "brand": "Interdiscount", "brand:wikidata": "Q1665980", "check_date:opening_hours": "2021-06-14", "name": "Interdiscount", "opening_hours": "Mo-Fr 09:00-19:00; Sa 09:00-17:00", "operator": "Coop Genossenschaft", "shop": "electronics", "website": "https://www.interdiscount.ch/", "wheelchair": "yes"}}, {"type": "node", "id": 1312970824, "lat": 47.3972918, "lon": 8.456089, "tags": {"name": "Elektro Burri", "shop": "electronics", "wheelchair": "no"}}, {"type": "node", "id": 1345283584, "lat": 46.7488498, "lon": 7.6259667, "tags": {"name": "M\u00fcrner Elektro AG", "opening_hours": "Mo-Fr 08:00-12:00,13:00-18:00; Sa 08:00-14:00", "shop": "electronics", "wheelchair": "yes"}}, {"type": "node", "id": 1357158517, "lat": 47.3803114, "lon": 8.543473, "tags": {"name": "Keiser", "shop": "electronics"}}, {"type": "node", "id": 1361427553, "lat": 47.067541, "lon": 9.0586741, "tags": {"name": "Service7000", "shop": "electronics"}}, {"type": "node", "id": 1361427567, "lat": 47.0674824, "lon": 9.0584485, "tags": {"addr:city": "Netstal", "addr:housenumber": "41", "addr:postcode": "8754", "addr:street": "Molliserstrasse", "alt_name": "Interdiscount Netstal", "branch": "Netstal", "brand": "Interdiscount", "brand:wikidata": "Q1665980", "name": "Interdiscount", "operator": "Coop Genossenschaft", "shop": "electronics", "website": "https://www.interdiscount.ch/"}}, {"type": "node", "id": 1366716546, "lat": 47.3203599, "lon": 8.7944486, "tags": {"addr:city": "Wetzikon", "addr:country": "CH", "addr:housenumber": "30", "addr:postcode": "8620", "addr:street": "Bahnhofstrasse", "name": "Vitodurum", "opening_hours:covid19": "open", "shop": "electronics", "website": "http://www.servicepoint.ch/"}}, {"type": "node", "id": 1392873390, "lat": 47.4207852, "lon": 9.3781822, "tags": {"name": "Stampfl", "shop": "electronics"}}, {"type": "node", "id": 1464505188, "lat": 46.2022688, "lon": 6.1502763, "tags": {"addr:city": "Gen\u00e8ve", "addr:housenumber": "4", "addr:postcode": "1204", "addr:street": "Rue de Rive (les Rues Basses)", "air_conditioning": "yes", "brand": "Apple Store", "brand:wikidata": "Q421253", "brand:wikipedia": "en:Apple Store", "currency:CHF": "yes", "internet_access": "wlan", "internet_access:fee": "no", "name": "Apple Store", "opening_hours": "Mo-We 09:00-19:00, Th 09:00-21:00, Fr 09:00-19:30, Sa 09:00-18:00, Su closed", "payment:cash": "yes", "payment:coins": "yes", "payment:credit_cards": "yes", "payment:debit_cards": "yes", "phone": "+41 22 318 03 00", "shop": "electronics", "start_date": "2008-09-25", "toilets:wheelchair": "no", "website": "https://www.apple.com/chfr/retail/ruederive/", "wheelchair": "yes"}}, {"type": "node", "id": 1483096197, "lat": 46.1109929, "lon": 7.0762843, "tags": {"brand": "Fust", "brand:wikidata": "Q1227164", "brand:wikipedia": "de:Dipl. Ing. Fust", "layer": "-1", "name": "Fust", "opening_hours": "Mo-Th 08:30-18:30; Fr 08:30-20:00; Sa 08:00-17:00", "operator": "Fust", "phone": "027 720 55 10", "shop": "electronics", "source:website": "https://www.fust.ch/", "website": "https://www.cristal-centre.ch/"}}, {"type": "node", "id": 1483096206, "lat": 46.111252, "lon": 7.0760407, "tags": {"brand": "Interdiscount", "brand:wikidata": "Q1665980", "brand:wikipedia": "de:Interdiscount", "layer": "-1", "name": "Interdiscount", "opening_hours": "Mo-Th 08:30-18:30; Fr 08:30-20:00; Sa 08:00-17:00", "operator": "Interdiscount", "phone": "027 723 15 71", "shop": "electronics", "source:website": "https://www.interdiscount.ch/", "website": "https://www.cristal-centre.ch/"}}, {"type": "node", "id": 1572573481, "lat": 47.5369858, "lon": 8.733846, "tags": {"shop": "electronics"}}, {"type": "node", "id": 1578549029, "lat": 47.2741863, "lon": 8.4420313, "tags": {"name": "EKZ Eltop", "shop": "electronics"}}, {"type": "node", "id": 1579812198, "lat": 47.2771166, "lon": 8.4494401, "tags": {"addr:housenumber": "14", "addr:street": "Obere Bahnhofstrasse", "branch": "Affoltern am Albis", "brand:wikidata": "Q1227164", "check_date:opening_hours": "2022-08-20", "name": "Fust", "opening_hours": "Mo-Fr 09:00-18:30, Sa 09:00-17:00", "operator": "Dipl. Ing. Fust AG", "shop": "electronics", "wheelchair": "yes"}}, {"type": "node", "id": 1598860794, "lat": 47.55123, "lon": 7.595559, "tags": {"addr:city": "Basel", "addr:housenumber": "2", "addr:postcode": "4052", "addr:street": "Aeschenplatz", "alt_name": "Interdiscount Aeschenplatz", "branch": "Basel Aeschenplatz", "brand": "Interdiscount", "brand:wikidata": "Q1665980", "name": "Interdiscount", "operator": "Coop Genossenschaft", "shop": "electronics", "website": "https://www.interdiscount.ch/"}}, {"type": "node", "id": 1613988585, "lat": 47.2008572, "lon": 7.5699311, "tags": {"addr:city": "Zuchwil", "addr:housenumber": "47", "addr:postcode": "4528", "addr:street": "Dorfackerstrasse", "alt_name": "Interdiscount Zuchwil XXL", "branch": "Zuchwil", "brand": "Interdiscount", "brand:wikidata": "Q1665980", "contact:phone": "+41 32 685 03 61", "name": "Interdiscount XXL", "opening_hours": "Mo-Fr 09:00-18:30; We 09:00-21:00; Sa 09:00-17:00; PH off", "operator": "Coop Genossenschaft", "payment:american_express": "yes", "payment:cash": "yes", "payment:diners_club": "yes", "payment:maestro": "yes", "payment:mastercard": "yes", "payment:postfinance_card": "yes", "payment:visa": "yes", "shop": "electronics", "website": "https://www.interdiscount.ch/"}}, {"type": "node", "id": 1613988589, "lat": 47.2016564, "lon": 7.5691461, "tags": {"addr:housenumber": "45", "addr:street": "Dorfackerstrasse", "alt_name": "Fust Zuchwil", "branch": "Zuchwil", "brand": "Fust", "brand:wikidata": "Q1227164", "brand:wikipedia": "de:Dipl. Ing. Fust", "contact:phone": "+41 32 686 81 20", "contact:website": "https://www.fust.ch", "level": "1", "name": "Fust", "opening_hours": "Mo-Fr 09:00-18:30; We 09:00-21:00; Sa 09:00-17:00; PH off", "operator": "Dipl. Ing. Fust AG", "payment:american_express": "yes", "payment:cash": "yes", "payment:diners_club": "yes", "payment:maestro": "yes", "payment:mastercard": "yes", "payment:postfinance_card": "yes", "payment:visa": "yes", "shop": "electronics", "website": "https://www.fust.ch/"}}, {"type": "node", "id": 1631899733, "lat": 47.3880264, "lon": 8.1771268, "tags": {"addr:city": "Lenzburg", "addr:housenumber": "15", "addr:postcode": "5600", "addr:street": "Bachstrasse", "alt_name": "melectronics Lenzburg", "branch": "Lenzburg", "name": "melectronics", "operator": "Genossenschaft Migros Aare", "shop": "electronics", "website": "https://www.melectronics.ch/", "wheelchair": "yes"}}, {"type": "node", "id": 1685063907, "lat": 47.1685237, "lon": 8.2882727, "tags": {"alt_name": "Interdiscount Hochdorf", "branch": "Hochdorf", "brand": "Interdiscount", "brand:wikidata": "Q1665980", "name": "Interdiscount", "operator": "Coop Genossenschaft", "shop": "electronics", "website": "https://www.interdiscount.ch/"}}, {"type": "node", "id": 1687406246, "lat": 47.3690689, "lon": 8.5556985, "tags": {"addr:city": "Z\u00fcrich", "addr:country": "CH", "addr:housenumber": "52", "addr:postcode": "8032", "addr:street": "Hottingerstrasse", "alt_name": "Fust Hottingerplatz", "branch": "Z\u00fcrich Hottingerplatz", "brand": "Fust", "brand:wikidata": "Q1227164", "brand:wikipedia": "de:Dipl. Ing. Fust", "name": "Fust", "opening_hours": "Mo-Fr 09:00-12:00, 13:00-18:30; Sa 09:00-12:15, 12:45-17:00", "operator": "Dipl. Ing. Fust AG", "shop": "electronics", "website": "https://www.fust.ch/"}}, {"type": "node", "id": 1711923339, "lat": 47.2074864, "lon": 7.5364676, "tags": {"addr:city": "Solothurn", "addr:housenumber": "37", "addr:postcode": "4500", "addr:street": "Hauptgasse", "alt_name": "Interdiscount Solothurn", "branch": "Solothurn", "brand": "Interdiscount", "brand:wikidata": "Q1665980", "contact:phone": "+41 32 621 04 31", "name": "Interdiscount", "opening_hours": "Mo-Fr 09:00-18:30; Th 09:00-21:00; Sa 09:00-17:00; PH off", "operator": "Coop Genossenschaft", "payment:american_express": "yes", "payment:cash": "yes", "payment:diners_club": "yes", "payment:maestro": "yes", "payment:mastercard": "yes", "payment:postfinance_card": "yes", "payment:visa": "yes", "shop": "electronics", "website": "https://www.interdiscount.ch/", "wheelchair": "yes"}}, {"type": "node", "id": 1843121788, "lat": 47.5648008, "lon": 8.9101381, "tags": {"addr:housenumber": "305", "addr:street": "Z\u00fcrcherstrasse", "branch": "Frauenfeld", "brand": "Fust", "brand:wikidata": "Q1227164", "name": "Fust", "operator": "Dipl. Ing. Fust AG", "shop": "electronics", "wheelchair": "limited"}}, {"type": "node", "id": 1869057197, "lat": 46.8820564, "lon": 8.6446448, "tags": {"addr:city": "Altdorf UR", "addr:housenumber": "4", "addr:postcode": "6460", "addr:street": "Marktgasse", "alt_name": "Interdiscount Altdorf", "branch": "Altdorf", "brand": "Interdiscount", "brand:wikidata": "Q1665980", "name": "Interdiscount", "operator": "Coop Genossenschaft", "shop": "electronics", "website": "https://www.interdiscount.ch/", "wheelchair": "yes"}}, {"type": "node", "id": 1912744037, "lat": 46.6814564, "lon": 7.852162, "tags": {"brand": "melectronics", "brand:wikidata": "Q110276002", "level": "1", "name": "melectronics", "opening_hours": "Mo-Th 08:00-19:00, Fr 08:00-21:00, Sa 08:00-18:00", "shop": "electronics", "wheelchair": "yes"}}, {"type": "node", "id": 1920128233, "lat": 46.9475054, "lon": 7.4354641, "tags": {"addr:city": "Bern", "addr:housenumber": "18", "addr:postcode": "3008", "addr:street": "Laupenstrasse", "alt_name": "Digitec Bern", "branch": "Bern", "brand": "Digitec Galaxus", "brand:wikidata": "Q1225079", "check_date": "2022-11-18", "contact:addr": "Laupenstrasse 18, 3008 Bern", "contact:email": "digitec@digitec.ch", "contact:fax": "+41 848 008801", "contact:phone": "+41 44 5759500", "name": "Digitec", "opening_hours": "Mo-Fr 09:00-19:00; Sa 09:00-17:00", "operator": "Digitec Galaxus", "shop": "electronics", "website": "https://www.digitec.ch/", "wheelchair": "limited", "wheelchair:description": "Hat Rollstuhllift der manchmal aber nicht ohne Hilfe funktioniert"}}, {"type": "node", "id": 1979428367, "lat": 46.8573016, "lon": 7.1853357, "tags": {"addr:city": "D\u00fcdingen", "addr:country": "CH", "addr:housenumber": "18", "addr:postcode": "3186", "addr:street": "Bonnstrasse", "email": "info@vending-elektronik.ch", "fax": "+41 26 492 04 22", "name": "Vending Elektronik GmbH", "opening_hours": "Mo-Fr 07:30-12:00,13:30-17:30; Sa-Su off", "phone": "+41 26 492 04 20", "shop": "electronics", "website": "https://www.vending-elektronik.ch/"}}, {"type": "node", "id": 1999182519, "lat": 46.0402504, "lon": 8.9328125, "tags": {"name": "EP", "shop": "electronics"}}, {"type": "node", "id": 2001262829, "lat": 47.5413336, "lon": 7.6192301, "tags": {"addr:housenumber": "397", "addr:street": "St. Jakobs-Strasse", "alt_name": "Fust St. Jakob-Park", "branch": "Basel St. Jakob-Park", "brand:wikidata": "Q1227164", "name": "Fust", "operator": "Dipl. Ing. Fust AG", "shop": "electronics"}}, {"type": "node", "id": 2035571408, "lat": 47.5095078, "lon": 7.5540573, "tags": {"addr:city": "Oberwil BL", "addr:housenumber": "22", "addr:postcode": "4104", "addr:street": "M\u00fchlemattstrasse", "alt_name": "Interdiscount Oberwil BL", "branch": "Oberwil BL", "brand": "Interdiscount", "brand:wikidata": "Q1665980", "brand:wikipedia": "de:Interdiscount", "name": "Interdiscount", "operator": "Coop Genossenschaft", "shop": "electronics", "website": "https://www.interdiscount.ch/"}}, {"type": "node", "id": 2036457812, "lat": 46.7812182, "lon": 7.0886383, "tags": {"branch": "SA", "brand": "Interdiscount", "brand:wikidata": "Q1665980", "name": "Interdiscount", "shop": "electronics"}}, {"type": "node", "id": 2038794486, "lat": 46.6230276, "lon": 7.0580862, "tags": {"name": "Interdiscount", "shop": "electronics"}}, {"type": "node", "id": 2061507606, "lat": 46.1898396, "lon": 6.1304493, "tags": {"name": "MediaMarkt", "opening_hours": "Mo-Fr,Fr 09:30-19:00; Th 09:30-20:00; Sa 09:00-18:00", "shop": "electronics"}}, {"type": "node", "id": 2073517014, "lat": 46.509751, "lon": 6.4976599, "tags": {"brand": "Interdiscount", "brand:wikidata": "Q1665980", "brand:wikipedia": "de:Interdiscount", "name": "Interdiscount", "opening_hours": "Mo-Fr 09:00-18:30; Sa 09:00-17:00", "shop": "electronics", "shop_1": "hifi", "wheelchair": "yes"}}, {"type": "node", "id": 2079782013, "lat": 47.3762281, "lon": 8.5377838, "tags": {"addr:city": "Z\u00fcrich", "addr:country": "CH", "addr:housenumber": "52", "addr:postcode": "8001", "addr:street": "L\u00f6wenstrasse", "alt_name": "Interdiscount L\u00f6wenplatz", "branch": "Z\u00fcrich L\u00f6wenplatz", "brand": "Interdiscount", "brand:wikidata": "Q1665980", "brand:wikipedia": "de:Interdiscount", "check_date:opening_hours": "2022-09-12", "name": "Interdiscount", "opening_hours": "Mo-Sa 09:00-20:00", "operator": "Coop Genossenschaft", "shop": "electronics", "website": "https://www.interdiscount.ch/", "wheelchair": "yes"}}, {"type": "node", "id": 2110444318, "lat": 47.567735, "lon": 9.1107903, "tags": {"addr:city": "Weinfelden", "addr:country": "CH", "addr:housenumber": "12", "addr:postcode": "8570", "addr:street": "Amriswilerstrasse", "alt_name": "melectronics Weinfelden", "branch": "Weinfelden R\u00f6sslifelsen", "name": "melectronics", "opening_hours": "Mo-Fr 08:00-19:00;Sa 08:00-17:00", "operator": "Genossenschaft Migros Ostschweiz", "shop": "electronics", "website": "https://www.melectronics.ch/", "wheelchair": "limited"}}, {"type": "node", "id": 2111414694, "lat": 46.2092367, "lon": 6.1430525, "tags": {"addr:city": "Gen\u00e8ve", "brand": "Fust", "brand:wikidata": "Q1227164", "brand:wikipedia": "de:Dipl. Ing. Fust", "name": "Fust", "note": "2 floors", "shop": "electronics"}}, {"type": "node", "id": 2122292647, "lat": 47.102081, "lon": 6.8291328, "tags": {"brand": "Interdiscount", "brand:wikidata": "Q1665980", "brand:wikipedia": "de:Interdiscount", "name": "Interdiscount", "opening_hours": "Mo 13:30-18:30; Tu-We 9:00-12:00,13:30-18:30; Th 9:00-12:00,13:30-19:30; Fr 9:00-12:00,13:30-18:30; Sa 8:30-17:00", "shop": "electronics"}}, {"type": "node", "id": 2123887402, "lat": 46.7808984, "lon": 7.0882623, "tags": {"brand": "Fust", "brand:wikidata": "Q1227164", "name": "Fust", "shop": "electronics"}}, {"type": "node", "id": 2140752322, "lat": 47.5190427, "lon": 8.5405326, "tags": {"addr:housenumber": "2", "addr:street": "Marktgasse", "branch": "B\u00fclach", "brand": "Fust", "brand:wikidata": "Q1227164", "brand:wikipedia": "de:Dipl. Ing. Fust", "name": "Fust", "operator": "Dipl. Ing. Fust AG", "shop": "electronics"}}, {"type": "node", "id": 2142438884, "lat": 46.7979872, "lon": 7.1247911, "tags": {"name": "Fust", "shop": "electronics", "wheelchair": "yes"}}, {"type": "node", "id": 2142438886, "lat": 46.7978639, "lon": 7.1238261, "tags": {"name": "Interdiscount", "shop": "electronics", "wheelchair": "yes"}}, {"type": "node", "id": 2206704084, "lat": 46.1826106, "lon": 6.1202895, "tags": {"addr:city": "Grand-Lancy", "addr:country": "CH", "addr:housenumber": "2", "addr:postcode": "1212", "addr:street": "Place du 1er-Ao\u00fbt", "name": "Prom\u00e9nager SA", "note": "surveyed by Alex-7 with OSMpad and bicycle", "opening_hours": "Mo-Fr 08:00-18:00", "phone": "+41223118588", "shop": "electronics", "source": "survey", "survey:date": "2013-03-17"}}, {"type": "node", "id": 2258851970, "lat": 47.6960021, "lon": 8.6367946, "tags": {"addr:city": "Schaffhausen", "addr:country": "CH", "addr:housenumber": "31", "addr:postcode": "8200", "addr:street": "Vordergasse", "level": "0", "name": "Sauter AG Radio + Television", "opening_hours": "Mo 13:30-18:30; Tu-Fr 08:30-12:00,13:00-18:30; Sa 08:30-16:00", "phone": "+41 52 634 04 04", "shop": "electronics", "website": "https://sauterag.ch/index.php"}}, {"type": "node", "id": 2269551489, "lat": 46.7438801, "lon": 7.6051868, "tags": {"brand": "Media Markt", "brand:wikidata": "Q2381223", "brand:wikipedia": "en:Media Markt", "name": "Media Markt", "shop": "electronics"}}, {"type": "node", "id": 2306532772, "lat": 47.2687921, "lon": 8.6450975, "tags": {"addr:housenumber": "124", "addr:street": "Dorfstrasse", "alt_name": "Fust Meilen", "branch": "Meilen", "brand:wikidata": "Q1227164", "name": "Fust", "operator": "Dipl. Ing. Fust AG", "shop": "electronics"}}, {"type": "node", "id": 2325120534, "lat": 47.0763124, "lon": 7.5709504, "tags": {"addr:city": "Lyssach", "addr:housenumber": "35", "addr:postcode": "3421", "addr:street": "Bernstrasse", "alt_name": "Media Markt Lyssach", "branch": "Lyssach", "brand": "Media Markt", "brand:wikidata": "Q2381223", "name": "Media Markt", "operator": "Media Markt Schweiz", "shop": "electronics", "toilets:wheelchair": "yes", "website": "https://www.mediamarkt.ch/", "wheelchair": "yes"}}, {"type": "node", "id": 2325645188, "lat": 47.6513947, "lon": 9.1740221, "tags": {"alt_name": "EP Raisig", "level": "0", "name": "Raisig Media", "opening_hours": "Mo-Fr 08:00-12:00,13:30-18:30; Sa 09:00-12:00; PH closed", "shop": "electronics", "wheelchair": "limited"}}, {"type": "node", "id": 2365799438, "lat": 46.6162683, "lon": 9.1797004, "tags": {"name": "Comet", "shop": "electronics", "source": "knowledge"}}, {"type": "node", "id": 2373199687, "lat": 47.2699342, "lon": 8.6426487, "tags": {"addr:city": "Meilen", "addr:housenumber": "81", "addr:postcode": "8706", "addr:street": "Dorfstrasse", "alt_name": "Interdiscount Meilen", "branch": "Meilen", "brand": "Interdiscount", "brand:wikidata": "Q1665980", "brand:wikipedia": "de:Interdiscount", "name": "Interdiscount", "operator": "Coop Genossenschaft", "shop": "electronics", "website": "https://www.interdiscount.ch/", "wheelchair": "yes"}}, {"type": "node", "id": 2392117374, "lat": 47.5475792, "lon": 7.547446, "tags": {"addr:city": "Allschwil", "addr:housenumber": "86", "addr:postcode": "4123", "addr:street": "Binningerstrasse", "alt_name": "Interdiscount Allschwil", "branch": "Allschwil", "brand": "Interdiscount", "brand:wikidata": "Q1665980", "name": "Interdiscount", "operator": "Coop Genossenschaft", "shop": "electronics", "website": "https://www.interdiscount.ch/"}}, {"type": "node", "id": 2466410405, "lat": 47.3098159, "lon": 8.7190364, "tags": {"name": "Crainich Bruno", "shop": "electronics"}}, {"type": "node", "id": 2477298222, "lat": 47.2194314, "lon": 7.788236, "tags": {"addr:city": "Langenthal", "addr:country": "CH", "addr:housenumber": "17", "addr:postcode": "4900", "addr:street": "Murgenthalstrasse", "alt_name": "melectronics Langenthal", "branch": "Langenthal MParc", "brand": "melectronics", "name": "melectronics", "opening_hours": "Mo-Th 09:00-19:00; Fr 09:00-21:00; Sa 08:00-17:00; Su off; PH off", "operator": "Genossenschaft Migros Aare", "phone": "+41 58 567 86 30", "shop": "electronics", "website": "https://www.melectronics.ch/"}}, {"type": "node", "id": 2492054214, "lat": 47.2295721, "lon": 8.8209032, "tags": {"addr:city": "Rapperswil", "addr:housenumber": "4", "addr:postcode": "8640", "addr:street": "Z\u00fcrcherstrasse", "alt_name": "Interdiscount Rapperswil SG", "branch": "Rapperswil SG", "brand": "Interdiscount", "brand:wikidata": "Q1665980", "brand:wikipedia": "de:Interdiscount", "name": "Interdiscount", "opening_hours": "Mo-Fr 09:00-20:00; Sa 09:00-18:00", "operator": "Coop Genossenschaft", "shop": "electronics", "website": "https://www.interdiscount.ch/"}}, {"type": "node", "id": 2493164032, "lat": 47.7193032, "lon": 8.6685755, "tags": {"addr:housenumber": "8", "addr:postcode": "8207", "addr:street": "Ernst M\u00fcller-Strasse", "branch": "Schaffhausen", "brand": "STEG", "brand:wikidata": "Q783607", "name": "STEG Electronics", "old_name": "PCP.CH", "operator": "STEG Electronics", "shop": "electronics", "website": "https://steg.services/standorte/schaffhausen/"}}, {"type": "node", "id": 2501803284, "lat": 46.8039642, "lon": 9.8364455, "tags": {"addr:city": "Davos", "addr:country": "CH", "addr:housenumber": "123", "addr:street": "Promenade", "name": "EP:Bernhard", "phone": "+41 (0) 81 420 11 11", "shop": "electronics", "website": "http://www.ep-bernhard.ch/"}}, {"type": "node", "id": 2523410095, "lat": 46.2297989, "lon": 7.3581337, "tags": {"addr:city": "Sion", "addr:housenumber": "19", "addr:postcode": "1950", "addr:street": "Avenue de la Gare", "brand": "Interdiscount", "brand:wikidata": "Q1665980", "brand:wikipedia": "de:Interdiscount", "name": "Interdiscount", "opening_hours": "Mo-Fr 09:00-12:00,13:30-18:30; Sa 08:30-17:00", "operator": "Franck Arlettaz", "phone": "+41 27 323 95 11", "shop": "electronics"}}, {"type": "node", "id": 2532531857, "lat": 47.4825657, "lon": 8.2085907, "tags": {"addr:city": "Brugg", "addr:housenumber": "7", "addr:postcode": "5200", "addr:street": "Neumarktplatz", "alt_name": "Interdiscount Brugg", "branch": "Brugg", "brand": "Interdiscount", "brand:wikidata": "Q1665980", "name": "Interdiscount", "operator": "Coop Genossenschaft", "shop": "electronics", "website": "https://www.interdiscount.ch/"}}, {"type": "node", "id": 2556090529, "lat": 46.7858237, "lon": 8.1598527, "tags": {"name": "Elektro Ming", "shop": "electronics"}}, {"type": "node", "id": 2559597489, "lat": 47.2309966, "lon": 8.6699449, "tags": {"addr:city": "W\u00e4denswil", "addr:housenumber": "13", "addr:postcode": "8820", "addr:street": "Florhofstrasse", "alt_name": "Interdiscount W\u00e4denswil", "branch": "W\u00e4denswil", "brand": "Interdiscount", "brand:wikidata": "Q1665980", "brand:wikipedia": "de:Interdiscount", "name": "Interdiscount", "operator": "Coop Genossenschaft", "shop": "electronics", "website": "https://www.interdiscount.ch/"}}, {"type": "node", "id": 2560373653, "lat": 46.1385973, "lon": 7.1167111, "tags": {"email": "trans-info@bluewin.ch", "fixme": "v\u00e9rifier s'il a d\u00e9m\u00e9nag\u00e9", "name": "Cotture Michel - radio TV", "phone": "+41 27 746 34 34", "shop": "electronics", "wheelchair": "yes"}}, {"type": "node", "id": 2569600150, "lat": 47.2124909, "lon": 9.4950631, "tags": {"brand": "Interdiscount", "brand:wikidata": "Q1665980", "brand:wikipedia": "de:Interdiscount", "name": "Interdiscount", "shop": "electronics"}}, {"type": "node", "id": 2569600154, "lat": 47.2126388, "lon": 9.495452, "tags": {"brand": "Fust", "brand:wikidata": "Q1227164", "brand:wikipedia": "de:Dipl. Ing. Fust", "name": "FUST", "shop": "electronics"}}, {"type": "node", "id": 2574066803, "lat": 47.0408329, "lon": 9.0668727, "tags": {"addr:city": "Glarus", "addr:housenumber": "20", "addr:postcode": "8750", "addr:street": "Kirchstrasse", "name": "Trevisan", "shop": "electronics"}}, {"type": "node", "id": 2577144472, "lat": 47.525332, "lon": 7.6469901, "tags": {"name": "EP: Leitz Multimedia & Solar", "shop": "electronics"}}, {"type": "node", "id": 2577144476, "lat": 47.5274725, "lon": 7.6480459, "tags": {"addr:city": "Muttenz", "addr:postcode": "4132", "addr:street": "Hauptstrasse", "alt_name": "Interdiscount Muttenz", "branch": "Muttenz", "brand": "Interdiscount", "brand:wikidata": "Q1665980", "name": "Interdiscount", "opening_hours": "Mo-Fr 09:00-18:30;Sa 09:00-16:00", "operator": "Coop Genossenschaft", "shop": "electronics", "website": "https://www.interdiscount.ch/"}}, {"type": "node", "id": 2617125338, "lat": 46.9138896, "lon": 8.6231599, "tags": {"addr:city": "Fl\u00fcelen", "addr:housename": "89", "addr:postcode": "6454", "addr:street": "Axenstrasse", "name": "Fredy Herger Service + Verkauf", "shop": "electronics"}}, {"type": "node", "id": 2627064817, "lat": 46.6041044, "lon": 6.2347416, "tags": {"addr:city": "L'Orient", "addr:housenumber": "24", "addr:postcode": "1341", "addr:street": "Rue du Pont-Neuf", "name": "SEVJ Magasin \u00e9l\u00e9ctrom\u00e9nager", "opening_hours": "Mo-Fr 08:00-12:00,14:00-19:00; Sa 08:00-12:00", "phone": "+4121 845 13 401", "shop": "electronics", "website": "https://www.sevj.ch/"}}, {"type": "node", "id": 2639842907, "lat": 47.5573302, "lon": 8.8963705, "tags": {"addr:city": "Frauenfeld", "addr:housenumber": "72", "addr:postcode": "8500", "addr:street": "Bahnhofplatz", "alt_name": "melectronics Frauenfeld", "branch": "Frauenfeld Passage", "brand": "melectronics", "brand:wikidata": "Q110276002", "level": "1", "name": "melectronics", "operator": "Genossenschaft Migros Ostschweiz", "shop": "electronics", "website": "https://www.melectronics.ch/", "wheelchair": "yes"}}, {"type": "node", "id": 2639842909, "lat": 47.5571919, "lon": 8.8966018, "tags": {"addr:city": "Frauenfeld", "addr:housenumber": "70", "addr:postcode": "8500", "addr:street": "Bahnhofstrasse", "alt_name": "Interdiscount Frauenfeld", "branch": "Frauenfeld Bahnhofplatz", "brand": "Interdiscount", "brand:wikidata": "Q1665980", "level": "0", "name": "Interdiscount", "operator": "Coop Genossenschaft", "shop": "electronics", "website": "https://www.interdiscount.ch/", "wheelchair": "yes"}}, {"type": "node", "id": 2674896779, "lat": 47.4644447, "lon": 9.041855, "tags": {"addr:city": "Wil SG", "addr:housenumber": "3", "addr:postcode": "9500", "addr:street": "Z\u00fcrcherstrasse", "alt_name": "Interdiscount Wil SG", "branch": "Wil SG", "brand": "Interdiscount", "brand:wikidata": "Q1665980", "brand:wikipedia": "de:Interdiscount", "name": "Interdiscount", "opening_hours": "Mo-Fr 09:00-18:30; Sa 08:00-17:00; Tu 09:00-20:00", "operator": "Coop Genossenschaft", "shop": "electronics", "url": "http://www.interdiscount.ch/", "website": "https://www.interdiscount.ch/"}}, {"type": "node", "id": 2730086224, "lat": 47.074188, "lon": 8.2921107, "tags": {"addr:housenumber": "50", "addr:street": "Seetalstrasse", "branch": "Emmen Wohncenter", "brand": "Fust", "brand:wikidata": "Q1227164", "brand:wikipedia": "de:Dipl. Ing. Fust", "name": "Fust", "operator": "Dipl. Ing. Fust AG", "shop": "electronics"}}, {"type": "node", "id": 2755874415, "lat": 47.3068176, "lon": 8.8157878, "tags": {"addr:housenumber": "40", "addr:street": "W\u00e4sseristrasse", "alt_name": "Fust Hinwil", "branch": "Hinwil", "brand:wikidata": "Q1227164", "name": "Fust", "operator": "Dipl. Ing. Fust AG", "shop": "electronics"}}, {"type": "node", "id": 2822504460, "lat": 47.415419, "lon": 9.1816271, "tags": {"name": "Trouble Shooter GmbH", "shop": "electronics", "website": "https://www.trosho.ch/"}}, {"type": "node", "id": 2823453683, "lat": 47.2560372, "lon": 6.9981507, "tags": {"name": "MB TV Services", "shop": "electronics"}}, {"type": "node", "id": 2823453687, "lat": 47.2551397, "lon": 6.997749, "tags": {"name": "expert", "shop": "electronics"}}, {"type": "node", "id": 2843821731, "lat": 46.5227973, "lon": 6.6303539, "tags": {"brand": "Interdiscount", "brand:wikidata": "Q1665980", "brand:wikipedia": "de:Interdiscount", "name": "Interdiscount", "opening_hours": "Mo-Fr 08:30-19:00; Sa 08:00-18:00", "shop": "electronics", "wheelchair": "yes"}}, {"type": "node", "id": 2917030375, "lat": 46.1128522, "lon": 7.0772939, "tags": {"name": "M electronics", "opening_hours": "Mo-Th 08:30-18:30, Fr 08:30-20:00, Sa 08:00-17:00", "operator": "M electronics", "phone": "027 720 68 80", "shop": "electronics"}}, {"type": "node", "id": 2925703954, "lat": 46.9445037, "lon": 7.3986854, "tags": {"name": "EP:AAAbsolut Gullo", "shop": "electronics"}}, {"type": "node", "id": 2949153090, "lat": 46.9506089, "lon": 7.3920485, "tags": {"branch": "Bern Bethlehem", "name": "Interdiscount", "opening_hours": "Mo-Th 08:00-19:00; Fr 08:00-21:00; Sa 07:30-17:00; Su,PH closed", "operator": "Coop", "shop": "electronics", "website": "https://www.interdiscount.ch/", "wheelchair": "yes"}}, {"type": "node", "id": 2949154843, "lat": 47.0590048, "lon": 7.6217488, "tags": {"brand": "Interdiscount", "brand:wikidata": "Q1665980", "brand:wikipedia": "de:Interdiscount", "name": "Interdiscount", "opening_hours": "Mo-Th 09:00-18:30; Fr 09:00-20:00; Sa 09:00-17:00", "payment:american_express": "yes", "payment:cash": "yes", "payment:diners_club": "yes", "payment:maestro": "yes", "payment:mastercard": "yes", "payment:postfinance_card": "yes", "payment:visa": "yes", "shop": "electronics"}}, {"type": "node", "id": 2955574969, "lat": 47.7208103, "lon": 8.665671, "tags": {"alt_name": "Fust Herblinger-Markt", "branch": "Schaffhausen Herblinger-Markt", "brand:wikidata": "Q1227164", "name": "Fust", "operator": "Dipl. Ing. Fust AG", "shop": "electronics", "wheelchair": "yes"}}, {"type": "node", "id": 2955574970, "lat": 47.7203586, "lon": 8.6649994, "tags": {"addr:city": "Schaffhausen", "addr:housenumber": "4", "addr:postcode": "8207", "addr:street": "St\u00fcdliackerstrasse", "alt_name": "melectronics Herblinger-Markt", "branch": "Schaffhausen Herblinger-Markt", "name": "melectronics", "operator": "Genossenschaft Migros Ostschweiz", "shop": "electronics", "website": "https://www.melectronics.ch/", "wheelchair": "yes"}}, {"type": "node", "id": 2972682249, "lat": 46.1930344, "lon": 9.0244329, "tags": {"brand": "Interdiscount", "brand:wikidata": "Q1665980", "brand:wikipedia": "de:Interdiscount", "name": "Interdiscount", "shop": "electronics"}}, {"type": "node", "id": 2976323990, "lat": 46.9412433, "lon": 7.3910614, "tags": {"name": "Interdiscount", "shop": "electronics"}}, {"type": "node", "id": 2976323992, "lat": 46.9454337, "lon": 7.3742328, "tags": {"alt_name": "melectronics Bern Westside", "branch": "Bern Westside", "brand": "melectronics", "brand:wikidata": "Q110276002", "level": "0", "level:ref": "-1", "name": "melectronics", "opening_hours": "Mo-Th 09:00-20:00; Fr 09:00-21:00; Sa 08:00-17:00", "operator": "Genossenschaft Migros Aare", "phone": "+41 58 567 04 60", "shop": "electronics", "website": "https://www.melectronics.ch/de/cp/store/0036424/melectronics-bern-westside", "wheelchair": "yes"}}, {"type": "node", "id": 2994075163, "lat": 47.6435183, "lon": 8.602005, "tags": {"addr:city": "Rheinau", "addr:housenumber": "9", "addr:postcode": "8462", "addr:street": "Schulstrasse", "craft": "electrician", "name": "Baschnagel Elektro AG", "opening_hours": "Tu,Fr 08:00-11:30,14:00-18:00; Sa 09:00-12:00", "phone": "+41 52 319 12 82", "ref:gwrid": "12553", "shop": "electronics", "website": "https://www.baschnagel-elektro.ch"}}, {"type": "node", "id": 3024792716, "lat": 46.7466472, "lon": 7.6408285, "tags": {"name": "radio tv Planche", "shop": "electronics"}}, {"type": "node", "id": 3085758033, "lat": 47.373979, "lon": 8.5355226, "tags": {"name": "seeholzer", "shop": "electronics"}}, {"type": "node", "id": 3111612873, "lat": 46.9752256, "lon": 8.4197701, "tags": {"shop": "electronics"}}, {"type": "node", "id": 3121112917, "lat": 46.9470144, "lon": 7.4470538, "tags": {"brand": "Fust", "brand:wikidata": "Q1227164", "contact:addr": "M\u00fcnzgraben 4-6, 3011 Bern", "contact:email": "185@fust.ch", "contact:fax": "+41 31 3109498", "contact:phone": "+41 31 3109494", "name": "Fust", "opening_hours": "Mo-We 09:00-18:30; Th 09:00-20:00; Fr 09:00-18:30; Sa 09:00-16:00; Su off", "operator": "Dipl. Ing. Fust AG", "shop": "electronics", "source": "website and survey", "website": "https://www.fust.ch/de/filialensuche.html", "wheelchair": "yes"}}, {"type": "node", "id": 3122811962, "lat": 46.974919, "lon": 8.4199941, "tags": {"shop": "electronics"}}, {"type": "node", "id": 3150835702, "lat": 47.132127, "lon": 8.7446474, "tags": {"addr:city": "Einsiedeln", "addr:country": "CH", "addr:housenumber": "42", "addr:postcode": "8840", "addr:street": "Z\u00fcrichstrasse", "air_conditioning": "yes", "brand": "Expert", "brand:wikidata": "Q680990", "currency:CHF": "yes", "ele": "880", "email": "info@613.ch", "internet_access": "wlan", "internet_access:fee": "customers", "internet_access:ssid": "ECK_Store", "name": "Expert C\u00e4sar K\u00e4lin", "opening_hours": "Tu-Fr 09:00-12:00,14:00-18:00; Sa 09:00-16:00", "operator": "Expert C\u00e4sar K\u00e4lin GmbH", "payment:cash": "yes", "payment:debit_cards": "yes", "phone": "+41 55 412 72 72", "ref:vatin": "CHE-101.673.277", "shop": "electronics", "source": "local knowledge", "start_date": "1968", "website": "https://www.expert-kaelin.ch/"}}, {"type": "node", "id": 3166533866, "lat": 47.4253647, "lon": 9.3761882, "tags": {"brand": "Interdiscount", "brand:wikidata": "Q1665980", "brand:wikipedia": "de:Interdiscount", "name": "Interdiscount", "opening_hours": "Mo-We,Fr 09:00-19:00; Th 09:00-20:00; Sa 09:00-17:00", "shop": "electronics", "wheelchair": "yes"}}, {"type": "node", "id": 3216566661, "lat": 47.6500079, "lon": 9.1744141, "tags": {"branch": "Oeler&Beringer", "brand": "Expert", "brand:wikidata": "Q680990", "name": "Expert", "shop": "electronics", "wheelchair": "no"}}, {"type": "node", "id": 3262165979, "lat": 46.9005178, "lon": 7.4015984, "tags": {"addr:city": "K\u00f6niz", "addr:country": "CH", "addr:housenumber": "581", "addr:postcode": "3144", "addr:street": "Schwarzenburgstrasse", "addr:suburb": "Gasel", "alt_name": "Radio / TV Bieri", "contact:email": "rtvbieri@rtvbieri.ch", "contact:mobile": "+41 79 6510282", "contact:phone": "+41 31 8490883", "name": "Bieri", "opening_hours": "Mo off; Tu-Fr 16:00-18:30; Sa 09:30-12:00; Su off", "operator": "Radio TV Bieri (Einzelunternehmen)", "shop": "electronics", "source": "survey and website", "website": "http://www.rtvbieri.ch"}}, {"type": "node", "id": 3283186393, "lat": 46.9588812, "lon": 7.4559115, "tags": {"contact:addr": "Milit\u00e4rstrasse 56, 3014 Bern", "contact:email": "elektro.haldemann@bluewin.ch", "contact:fax": "+41 31 3311755", "contact:phone": "+41 31 3319805", "craft": "electrician", "name": "Haldemann Elektro", "operator": "Haldemann Elektro GmbH", "shop": "electronics", "source": "survey and website", "website": "http://www.haldemannelektro.ch"}}, {"type": "node", "id": 3285846973, "lat": 47.0576303, "lon": 6.748906, "tags": {"addr:city": "Le Locle", "addr:country": "CH", "addr:postcode": "2400", "addr:street": "Rue Daniel JeanRichard", "email": "jpg@expertrobert.ch", "fax": "+41(0)32 931 20 64", "image": "http://www.expertrobert.ch/expertrobert_web/FR/images_presentation/02.jpg", "name": "Expert Robert", "opening_hours": "Mo-Fr 09:00-12:00,14:00-18:00", "phone": "+41(0)32 931 15 14", "shop": "electronics", "website": "http://www.expertrobert.ch/EXPERTROBERT_WEB/FR/default.awp"}}, {"type": "node", "id": 3303851168, "lat": 47.4219884, "lon": 9.3705192, "tags": {"alt_name": "melectronics St. Gallen", "branch": "St. Gallen Neumarkt", "level": "1", "name": "melectronics", "operator": "Genossenschaft Migros Ostschweiz", "shop": "electronics", "website": "https://www.melectronics.ch/"}}, {"type": "node", "id": 3309646652, "lat": 45.8330889, "lon": 9.0322888, "tags": {"addr:city": "Chiasso", "addr:country": "CH", "addr:housenumber": "10", "addr:postcode": "6830", "addr:street": "Corso San Gottardo", "name": "Informatic-Center", "opening_hours": "Mo-Fr 09:00-12:00,14:00-18:00; Sa 09:00-15:00", "shop": "electronics", "source": "website and survey", "website": "http://www.informatic-center.ch"}}, {"type": "node", "id": 3324296286, "lat": 47.4172818, "lon": 9.3165152, "tags": {"addr:city": "Abtwil", "addr:housenumber": "7", "addr:postcode": "9030", "addr:street": "Wiesenbachstrasse", "alt_name": "melectronics S\u00e4ntispark", "branch": "Abtwil S\u00e4ntispark", "name": "melectronics", "opening_hours": "Mo-Th 08:30-19:00, Fr 08:30-21:00, Sa 07:30-17:00; PH off", "operator": "Genossenschaft Migros Ostschweiz", "shop": "electronics", "website": "https://www.melectronics.ch/"}}, {"type": "node", "id": 3325925756, "lat": 47.5474036, "lon": 7.5532891, "tags": {"addr:city": "Allschwil", "addr:housenumber": "215", "addr:postcode": "4123", "addr:street": "Spitzwaldstrasse", "alt_name": "melectronics Allschwil", "branch": "Allschwil Paradies", "name": "melectronics", "operator": "Genossenschaft Migros Basel", "shop": "electronics", "website": "https://www.melectronics.ch/"}}, {"type": "node", "id": 3343693022, "lat": 46.5338412, "lon": 6.5644711, "tags": {"addr:city": "Ecublens (VD)", "addr:housenumber": "7", "addr:postcode": "1024", "addr:street": "Chemin du Croset", "name": "Fust", "opening_hours": "Mo-Th 09:00-19:30; Fr 09:00-20:00; Sa 08:00-18:00", "operator": "Fust", "payment:cash": "yes", "payment:credit_cards": "yes", "payment:twint": "yes", "phone": "+41 21 695 25 30", "shop": "electronics", "website": "https://www.fust.ch/", "wikidata": "Q1227164", "wikipedia": "fr:Fust"}}, {"type": "node", "id": 3347953385, "lat": 47.4790406, "lon": 9.4908312, "tags": {"brand": "Interdiscount", "brand:wikidata": "Q1665980", "brand:wikipedia": "de:Interdiscount", "contact:phone": "+4171 841 39 09", "name": "Interdiscount", "shop": "electronics"}}, {"type": "node", "id": 3348691333, "lat": 45.86911, "lon": 8.9862699, "tags": {"addr:city": "Mendrisio", "addr:country": "CH", "addr:housenumber": "2", "addr:postcode": "6850", "addr:street": "Piazzetta Achille Borella", "name": "Elettro Star", "shop": "electronics"}}, {"type": "node", "id": 3348691356, "lat": 45.8690717, "lon": 8.985198, "tags": {"addr:city": "Mendrisio", "addr:country": "CH", "addr:postcode": "6850", "addr:street": "Via Francesco Borella", "name": "Elettro Star", "shop": "electronics"}}, {"type": "node", "id": 3348691368, "lat": 45.868342, "lon": 8.9851949, "tags": {"addr:city": "Mendrisio", "addr:country": "CH", "addr:housenumber": "5", "addr:postcode": "6850", "addr:street": "Via Gismonda", "name": "Bossi Radio TV", "shop": "electronics", "website": "http://www.videopro.ch"}}, {"type": "node", "id": 3348691371, "lat": 45.8698516, "lon": 8.988332, "tags": {"addr:city": "Mendrisio", "addr:country": "CH", "addr:postcode": "6850", "addr:street": "Corso Bello", "name": "Tecnofrank", "opening_hours": "Mo-Fr 09:00-12:00,14:00-18:30; Tu off", "shop": "electronics", "source": "website and survey", "website": "http://www.tecnofrank.com/"}}, {"type": "node", "id": 3371492494, "lat": 47.3737837, "lon": 8.5248388, "tags": {"addr:city": "Z\u00fcrich", "addr:housenumber": "38", "addr:postcode": "8004", "addr:street": "Ankerstrasse", "level": "0", "name": "Graziano Multimedia AG", "opening_hours": "Tu-Fr 08:30-12:00,13:00-18:30; Sa 08:30-16:00", "phone": "+41 44 200 99 99", "shop": "electronics", "website": "https://graziano.ch/", "wheelchair": "limited"}}, {"type": "node", "id": 3387878593, "lat": 46.5095427, "lon": 6.4977977, "tags": {"name": "Age du Soft", "shop": "electronics"}}, {"type": "node", "id": 3406727156, "lat": 46.757204, "lon": 7.6272049, "tags": {"brand": "Fust", "brand:wikidata": "Q1227164", "brand:wikipedia": "de:Dipl. Ing. Fust", "name": "Fust", "shop": "electronics"}}, {"type": "node", "id": 3422080218, "lat": 46.8209046, "lon": 8.4041718, "tags": {"addr:city": "Engelberg", "addr:housenumber": "31", "addr:postcode": "6390", "addr:street": "Dorfstrasse", "name": "EP:von Holzen", "opening_hours": "Mo-Fr 08:00-12:00,14:00-18:30; Sa 08:00-12:00,13:30-17:00", "shop": "electronics"}}, {"type": "node", "id": 3468090779, "lat": 47.3010093, "lon": 8.6896783, "tags": {"addr:city": "Egg", "addr:housenumber": "141", "addr:postcode": "8132", "addr:street": "Forchstrasse", "email": "expert.buehler@ggaweb.ch", "name": "Expert B\u00fchler", "opening_hours": "Tu-Fr 8:00-12:00, 15:00-18:30", "phone": "+41 44 984 21 44", "shop": "electronics", "website": "http://www.expert-buehler.ch/"}}, {"type": "node", "id": 3522237863, "lat": 47.6455471, "lon": 9.170912, "tags": {"addr:city": "Kreuzlingen", "addr:country": "CH", "addr:housenumber": "17", "addr:postcode": "8280", "addr:street": "Bachstrasse", "name": "Dipl. Ing. Fust AG", "shop": "electronics", "wheelchair": "yes"}}, {"type": "node", "id": 3541583735, "lat": 47.3740828, "lon": 8.0848427, "tags": {"addr:city": "Suhr", "addr:housenumber": "49", "addr:postcode": "5034", "addr:street": "Bernstrasse Ost", "alt_name": "Interdiscount Suhr", "branch": "Suhr Pfister-Center", "brand": "Interdiscount", "brand:wikidata": "Q1665980", "name": "Interdiscount", "operator": "Coop Genossenschaft", "shop": "electronics", "website": "https://www.interdiscount.ch/"}}, {"type": "node", "id": 3578951281, "lat": 47.2560187, "lon": 8.8558463, "tags": {"name": "Bosshard Multimedia AG, Servicepartner", "opening_hours": "Tu-Fr 09:00-12:00,14:00-18:30; Sa 09:00-12:00", "phone": "+41 55 240 41 08", "shop": "electronics"}}, {"type": "node", "id": 3590371520, "lat": 47.2186135, "lon": 7.5110183, "tags": {"addr:city": "Langendorf", "addr:housenumber": "6", "addr:place": "Fabrikstrasse", "addr:postcode": "4513", "alt_name": "melectronics Langendorf", "branch": "Langendorf Ladedorf", "brand": "melectronics", "contact:phone": "+41 58 567 84 00", "contact:website": "https://www.ladedorf.ch/shops-gastro/shop-detail/melectronics-ladedorf", "level": "1", "name": "melectronics", "opening_hours": "Mo-Th 08:00-18:30; Fr 08:00-21:00; Sa 08:00-18:00; PH off", "operator": "Genossenschaft Migros Aare", "shop": "electronics"}}, {"type": "node", "id": 3636853991, "lat": 47.0237733, "lon": 8.299918, "tags": {"addr:city": "Kriens", "addr:housenumber": "15", "addr:postcode": "6010", "addr:street": "Industriestrasse", "alt_name": "Media Markt Kriens", "branch": "Kriens", "brand": "Media Markt", "brand:wikidata": "Q2381223", "brand:wikipedia": "en:Media Markt", "name": "Media Markt", "operator": "Media Markt Schweiz", "shop": "electronics", "website": "https://www.mediamarkt.ch/", "wheelchair": "yes"}}, {"type": "node", "id": 3666472749, "lat": 47.5005227, "lon": 8.4078467, "tags": {"name": "AVR", "opening_hours": "Tu-Fr 10:00-20:00", "phone": "+41 79 472 80 90", "shop": "electronics", "website": "http://www.avr.ch/"}}, {"type": "node", "id": 3668912616, "lat": 47.3898766, "lon": 8.1712495, "tags": {"addr:city": "Lenzburg", "addr:housenumber": "2", "addr:postcode": "5600", "addr:street": "Zeughausstrasse", "alt_name": "Interdiscount Lenzburg", "branch": "Lenzburg", "brand": "Interdiscount", "brand:wikidata": "Q1665980", "name": "Interdiscount", "opening_hours": "Mo-Fr 07:30-20:00; Sa 07:30-18:00; Su off", "operator": "Coop Genossenschaft", "shop": "electronics", "website": "https://www.interdiscount.ch/"}}, {"type": "node", "id": 3681031426, "lat": 46.1944459, "lon": 6.1433757, "tags": {"addr:city": "Gen\u00e8ve", "addr:housenumber": "46", "addr:street": "Rue de Carouge", "brand": "Interdiscount", "brand:wikidata": "Q1665980", "brand:wikipedia": "de:Interdiscount", "name": "Interdiscount", "shop": "electronics"}}, {"type": "node", "id": 3708904742, "lat": 46.7993953, "lon": 7.1525466, "tags": {"contact:email": "richard.baechler@gemen.ch", "contact:fax": "+4126 350 30 19", "contact:phone": "+4126 350 30 10", "contact:website": "http://www.gemen.ch/", "name": "Groupe E Electrom\u00e9nager SA", "opening_hours": "Mo-Fr 08:30-12:00, 13:30-18:30; Sa 08:30-16:00; Su off", "shop": "electronics"}}, {"type": "node", "id": 3718116861, "lat": 46.8017003, "lon": 9.8327967, "tags": {"addr:city": "Davos", "addr:country": "CH", "addr:housenumber": "105", "addr:postcode": "7270", "addr:street": "Promenade", "name": "Melectronics", "shop": "electronics", "wheelchair": "yes"}}, {"type": "node", "id": 3722801138, "lat": 46.5300884, "lon": 8.9385088, "tags": {"name": "GiGaHz", "shop": "electronics"}}, {"type": "node", "id": 3726038462, "lat": 47.4204918, "lon": 8.5023148, "tags": {"addr:city": "Z\u00fcrich", "addr:housenumber": "3", "addr:postcode": "8046", "addr:street": "Furttalstrasse", "name": "EP:Furtronics", "shop": "electronics", "website": "http://www.furtronic.ch"}}, {"type": "node", "id": 3726134746, "lat": 47.3840404, "lon": 8.5311889, "tags": {"name": "Handymarkt", "shop": "electronics"}}, {"type": "node", "id": 3728144512, "lat": 47.5087301, "lon": 8.0190051, "tags": {"addr:city": "Frick", "addr:housenumber": "37", "addr:postcode": "5070", "addr:street": "Hauptstrasse", "alt_name": "Interdiscount Frick", "branch": "Frick", "brand": "Interdiscount", "brand:wikidata": "Q1665980", "name": "Interdiscount", "opening_hours": "Mo-Th 08:00-19:00, Fr 08:00-20:00, Sa 08:00-18:00", "operator": "Coop Genossenschaft", "shop": "electronics", "website": "https://www.interdiscount.ch/", "wheelchair": "yes"}}, {"type": "node", "id": 3728847026, "lat": 47.557707, "lon": 8.899131, "tags": {"level": "0", "name": "radioKaiser", "opening_hours": "We-Fr 10:00-16:00; Sa 09:00-14:00; PH closed", "shop": "electronics", "wheelchair": "yes"}}, {"type": "node", "id": 3729000128, "lat": 47.5567182, "lon": 8.898324, "tags": {"level": "0", "name": "Habersaat", "opening_hours": "Tu-Fr 08:30-12:00,13:30-18:30; Sa 08:30-16:00; PH closed", "shop": "electronics", "website": "https://www.habersaat-ag.ch/", "wheelchair": "yes"}}, {"type": "node", "id": 3730673609, "lat": 47.6692706, "lon": 9.0827968, "tags": {"name": "EP:Ehrensberger", "shop": "electronics"}}, {"type": "node", "id": 3731455938, "lat": 47.4159921, "lon": 8.166946, "tags": {"name": "Jost Elektro AG", "shop": "electronics"}}, {"type": "node", "id": 3771259475, "lat": 47.3002908, "lon": 9.0866632, "tags": {"addr:city": "Wattwil", "addr:housenumber": "11", "addr:postcode": "9630", "addr:street": "Bahnhofstrasse", "name": "Bichler + Partner AG", "phone": "+41 71 987 60 88", "shop": "electronics", "toilets:wheelchair": "no", "wheelchair": "no"}}, {"type": "node", "id": 3777899857, "lat": 47.3572629, "lon": 8.5229251, "tags": {"addr:city": "Z\u00fcrich", "addr:housenumber": "1", "addr:postcode": "8045", "addr:street": "Kalanderplatz", "alt_name": "Media Markt Sihlcity", "branch": "Z\u00fcrich Sihlcity", "brand": "MediaMarkt", "brand:wikidata": "Q2381223", "brand:wikipedia": "en:MediaMarkt", "level": "3", "name": "MediaMarkt", "opening_hours": "Mo-Sa 09:00-20:00", "operator": "Media Markt Schweiz", "shop": "electronics", "website": "https://www.mediamarkt.ch/", "wheelchair": "yes"}}, {"type": "node", "id": 3784154345, "lat": 46.8212807, "lon": 8.6499166, "tags": {"name": "Gemeindewerke Erstfeld (EWE)", "shop": "electronics"}}, {"type": "node", "id": 3790832517, "lat": 46.211416, "lon": 6.1447791, "tags": {"addr:city": "Geneva", "name": "Inter Discount", "shop": "electronics"}}, {"type": "node", "id": 3791315351, "lat": 46.2192481, "lon": 6.1127034, "tags": {"addr:city": "Gen\u00e8ve", "addr:housenumber": "27", "addr:postcode": "1211", "addr:street": "Avenue Louis-Casa\u00ef", "operator": "Fust", "shop": "electronics", "website": "https://www.fust.ch/"}}, {"type": "node", "id": 3797431289, "lat": 46.2063124, "lon": 6.1424204, "tags": {"addr:city": "Gen\u00e8ve", "note": "Apple shop", "shop": "electronics"}}, {"type": "node", "id": 3800603927, "lat": 46.2217812, "lon": 6.0961645, "tags": {"addr:city": "Meyrin", "brand": "Interdiscount", "brand:wikidata": "Q1665980", "brand:wikipedia": "de:Interdiscount", "name": "Interdiscount", "opening_hours": "Mo-We 08:30-19:00; Th 08:30-21:00; Fr 08:30-19:30; Sa 08:30-18:00", "operator": "Inter Discount", "shop": "electronics"}}, {"type": "node", "id": 3800722871, "lat": 47.5534316, "lon": 8.893038, "tags": {"description:covid19": "Es stehen nicht alle Dienstleistungen zur Verf\u00fcgung, siehe dazu auch die Newsmeldung auf der Website: https://www.leucom.ch/de/Unternehmen/News/Newsmeldung?newsid=333", "level": "0", "name": "leucom stafag schlatter", "opening_hours": "Mo-Fr 08:00-12:00,13:30-18:30; Sa 08:00-16:00", "opening_hours:covid19": "same", "shop": "electronics", "website": "https://www.leucom.ch/", "wheelchair": "no"}}, {"type": "node", "id": 3815651634, "lat": 47.547035, "lon": 9.2977978, "tags": {"addr:city": "Amriswil", "addr:housenumber": "10a", "addr:postcode": "8580", "addr:street": "R\u00fctistrasse", "alt_name": "melectronics Amriswil", "branch": "Amriswil", "name": "melectronics", "opening_hours": "Mo-Fr 09:00-20:00, Sa 07:30-18:00; PH off", "operator": "Genossenschaft Migros Ostschweiz", "shop": "electronics", "website": "https://www.melectronics.ch/"}}, {"type": "node", "id": 3824185340, "lat": 47.4899928, "lon": 8.2473054, "tags": {"email": "info@multiplanet.ch", "name": "Multiplanet", "opening_hours": "Mo-Th 9:00-12:00, 13:00-18:30; Fr 9:00-12:00, 13:30-20:00; Sa 9:00-17:00", "phone": "+41 (0)56 210 27 67", "shop": "electronics", "website": "https://www.multiplanet.ch/"}}, {"type": "node", "id": 3843278386, "lat": 47.3092952, "lon": 8.1157347, "tags": {"name": "K\u00f6nig & Co AG Radio TV", "shop": "electronics"}}, {"type": "node", "id": 3844594488, "lat": 47.2924537, "lon": 8.5650535, "tags": {"addr:city": "Thalwil", "addr:housenumber": "114", "addr:postcode": "8800", "addr:street": "Alte Landstrasse", "branch": "Frank", "brand": "Expert", "brand:wikidata": "Q680990", "brand:wikipedia": "en:Expert (company)", "email": "info@frank.ch", "name": "Expert", "opening_hours": "Mo-Fr 08:00-12:00,13:00-18:00; Sa 09:00-16:00", "phone": "+41 44 720 41 01", "shop": "electronics", "website": "https://expertfrank.ch", "wheelchair": "yes"}}, {"type": "node", "id": 3854489062, "lat": 47.4209518, "lon": 8.3691962, "tags": {"addr:city": "Spreitenbach", "addr:postcode": "8957", "alt_name": "Interdiscount Spreitenbach XXL", "branch": "Spreitenbach Shoppi", "brand": "Interdiscount", "brand:wikidata": "Q1665980", "brand:wikipedia": "de:Interdiscount", "level": "1", "name": "Interdiscount", "opening_hours:covid19": "off", "operator": "Coop Genossenschaft", "shop": "electronics", "website": "https://www.interdiscount.ch/"}}, {"type": "node", "id": 3868790586, "lat": 47.431375, "lon": 9.3962366, "tags": {"addr:housenumber": "152-154", "addr:street": "Rorschacher Strasse", "name": "Digitec Galaxus AG", "opening_hours": "Mo-Fr 09:00-19:00; Th 09:00-20:00; Sa 08:30-17:00", "shop": "electronics", "website": "https://digitec.ch/"}}, {"type": "node", "id": 3881549768, "lat": 47.5864465, "lon": 8.2949422, "tags": {"name": "Bivo Electronic", "shop": "electronics"}}, {"type": "node", "id": 3901646011, "lat": 47.1374819, "lon": 8.5814449, "tags": {"addr:city": "Unter\u00e4geri", "addr:housenumber": "25", "addr:postcode": "6314", "addr:street": "Zugerstrasse", "description": "Elektroger\u00e4te, K\u00fcche und Bad", "name": "Iten - Arnold Elektro AG", "opening_hours": "Tu-Fr 9:00-12:00,13:30-18:30; Sa 9:00-16:00; PH off", "phone": "+41 41 750 23 23", "shop": "electronics", "website": "https://www.iaeshop.ch/"}}, {"type": "node", "id": 3913401398, "lat": 47.4970863, "lon": 8.7613583, "tags": {"addr:city": "Winterthur", "addr:housenumber": "44", "addr:postcode": "8400", "addr:street": "Industriestrasse", "alt_name": "melectronics Gr\u00fczepark", "branch": "Winterthur Gr\u00fczepark", "name": "melectronics", "opening_hours": "Mo-Fr 09:00-20:00; Sa 08:00-18:00", "operator": "Genossenschaft Migros Ostschweiz", "shop": "electronics", "website": "https://www.melectronics.ch/"}}, {"type": "node", "id": 3946843411, "lat": 47.4618073, "lon": 8.4323178, "tags": {"name": "Radio TV Poltera", "shop": "electronics"}}, {"type": "node", "id": 3989449167, "lat": 47.5492482, "lon": 7.5876191, "tags": {"addr:city": "Basel", "addr:housenumber": "20", "addr:postcode": "4051", "addr:street": "Steinentorberg", "alt_name": "Digitec Basel", "branch": "Basel", "brand": "Digitec Galaxus", "brand:wikidata": "Q1225079", "name": "Digitec", "opening_hours": "Mo-Fr 10:00-19:00; Sa 09:00-17:00", "operator": "Digitec Galaxus", "shop": "electronics", "website": "https://www.digitec.ch/", "wheelchair": "yes"}}, {"type": "node", "id": 4045806089, "lat": 47.5221938, "lon": 8.5391979, "tags": {"addr:city": "B\u00fclach", "addr:housenumber": "48", "addr:street": "Bahnhofstrasse", "name": "Kessler", "shop": "electronics"}}, {"type": "node", "id": 4057151957, "lat": 47.3641167, "lon": 7.3491287, "tags": {"addr:housenumber": "40", "addr:street": "Avenue de la Gare", "alt_name": "Fust Del\u00e9mont", "branch": "Del\u00e9mont", "brand": "Fust", "brand:wikidata": "Q1227164", "brand:wikipedia": "de:Dipl. Ing. Fust", "name": "Fust", "operator": "Dipl. Ing. Fust AG", "shop": "electronics", "website": "https://www.fust.ch/", "wheelchair": "yes"}}, {"type": "node", "id": 4094002897, "lat": 47.4254891, "lon": 9.3783078, "tags": {"addr:housenumber": "25", "addr:street": "Br\u00fchlgasse", "name": "Schneider & Co. AG", "shop": "electronics"}}, {"type": "node", "id": 4095400145, "lat": 47.4990636, "lon": 8.7204206, "tags": {"addr:city": "Winterthur", "addr:housenumber": "3", "addr:postcode": "8400", "addr:street": "Strickerstrasse", "alt_name": "melectronics Neuwiesen", "branch": "Winterthur Neuwiesen", "name": "melectronics", "opening_hours": "Mo-Fr 08:00-20:00; Sa 08:00-18:00; PH off", "opening_hours:covid19": "off", "operator": "Genossenschaft Migros Ostschweiz", "shop": "electronics", "website": "https://www.melectronics.ch/"}}, {"type": "node", "id": 4095400146, "lat": 47.4996912, "lon": 8.7208014, "tags": {"addr:housenumber": "3", "addr:street": "Strickerstrasse", "branch": "Winterthur Neuwiesen", "brand:wikidata": "Q1227164", "level": "0", "name": "Fust", "opening_hours": "Mo-Fr 08:30-20:00; Sa 08:30-18:00; PH off", "opening_hours:covid19": "off", "operator": "Dipl. Ing. Fust AG", "shop": "electronics"}}, {"type": "node", "id": 4133413425, "lat": 47.2412972, "lon": 8.7225064, "tags": {"addr:city": "St\u00e4fa", "addr:housenumber": "11", "addr:postcode": "8712", "addr:street": "Bahnhofwiese", "name": "Elektro Laden St\u00e4fa", "opening_hours": "Mo 13:30-18:30; Tu-Fr 09:00-12:00,13:30-18:30; Sa 10:00-14:00", "phone": "+41 44 741 77 77", "shop": "electronics", "website": "http://www.elektrostaefa.ch/"}}, {"type": "node", "id": 4135634490, "lat": 46.3852765, "lon": 6.9302523, "tags": {"name": "Fust", "shop": "electronics"}}, {"type": "node", "id": 4136646889, "lat": 47.4763287, "lon": 8.3067638, "tags": {"addr:city": "Baden", "addr:housenumber": "5", "addr:postcode": "5400", "addr:street": "Langhaus", "alt_name": "Interdiscount Baden", "branch": "Baden West", "brand": "Interdiscount", "brand:wikidata": "Q1665980", "brand:wikipedia": "de:Interdiscount", "name": "Interdiscount", "opening_hours": "Mo-Fr 09:00-20:00; Sa 08:30-18:00", "operator": "Coop Genossenschaft", "shop": "electronics", "website": "https://www.interdiscount.ch/"}}, {"type": "node", "id": 4139337734, "lat": 47.51754, "lon": 8.3652552, "tags": {"email": "info@rtv-widmer.ch", "name": "Radio - TV M. Widmer", "opening_hours": "Tu-Fr 17:00-18:30; Sa 09:00-12:00,13:30-16:00", "operator": "Martin Widmer", "phone": "+41 56 250 44 44", "shop": "electronics", "website": "https://www.rtv-widmer.ch/"}}, {"type": "node", "id": 4139339166, "lat": 47.5198707, "lon": 8.3614343, "tags": {"name": "Baumann", "shop": "electronics"}}, {"type": "node", "id": 4142717263, "lat": 46.8737231, "lon": 7.5608201, "tags": {"brand": "Interdiscount", "brand:wikidata": "Q1665980", "brand:wikipedia": "de:Interdiscount", "name": "Interdiscount", "shop": "electronics"}}, {"type": "node", "id": 4143671998, "lat": 47.4930633, "lon": 8.7094994, "tags": {"addr:city": "Winterthur", "addr:housenumber": "75", "addr:postcode": "8406", "addr:street": "Z\u00fcrcherstrasse", "name": "Sp\u00fchler Electronic", "shop": "electronics"}}, {"type": "node", "id": 4163301390, "lat": 47.2610662, "lon": 9.1247905, "tags": {"name": "Bichler + Partner", "shop": "electronics"}}, {"type": "node", "id": 4171085589, "lat": 47.3369221, "lon": 8.4663511, "tags": {"addr:housenumber": "6", "addr:postcode": "8907", "addr:street": "Leimattenstrasse", "name": "Thunderbyte", "shop": "electronics", "website": "https://www.thunderbyte.ch/"}}, {"type": "node", "id": 4189897374, "lat": 47.4898561, "lon": 8.70361, "tags": {"addr:city": "Winterthur", "addr:housenumber": "184", "addr:postcode": "8406", "addr:street": "Z\u00fcrcherstrasse", "branch": "Winterthur T\u00f6ss", "brand:wikidata": "Q1227164", "name": "Fust", "operator": "Dipl. Ing. Fust AG", "shop": "electronics"}}, {"type": "node", "id": 4196806990, "lat": 46.9298027, "lon": 7.1216722, "tags": {"brand": "Interdiscount", "brand:wikidata": "Q1665980", "brand:wikipedia": "de:Interdiscount", "name": "Interdiscount", "shop": "electronics"}}, {"type": "node", "id": 4205801493, "lat": 47.4088276, "lon": 8.5439816, "tags": {"addr:city": "Z\u00fcrich", "addr:country": "CH", "addr:housenumber": "35", "addr:postcode": "8050", "addr:street": "Baumackerstrasse", "alt_name": "Interdiscount Oerlikon Bauhof", "branch": "Z\u00fcrich Oerlikon Bauhof", "brand": "Interdiscount", "brand:wikidata": "Q1665980", "brand:wikipedia": "de:Interdiscount", "level": "0", "name": "Interdiscount", "opening_hours": "Mo-Fr 09:00-19:00; Sa 09:00-17:00", "operator": "Coop Genossenschaft", "shop": "electronics", "website": "https://www.interdiscount.ch/"}}, {"type": "node", "id": 4212076942, "lat": 47.5160469, "lon": 9.4335886, "tags": {"addr:city": "Arbon", "addr:housenumber": "31", "addr:postcode": "9320", "addr:street": "Hauptstrasse", "name": "Bestcom Multimediapoint AG", "shop": "electronics"}}, {"type": "node", "id": 4219343921, "lat": 46.2268624, "lon": 6.0845287, "tags": {"addr:city": "Meyrin", "addr:housenumber": "13", "addr:postcode": "1217", "addr:street": "Chemin de Riantbosson", "name": "Ing. Dipl. Fust", "operator": "Ing. Dipl. Fust", "shop": "electronics"}}, {"type": "node", "id": 4222372680, "lat": 47.4045232, "lon": 8.6059063, "tags": {"addr:city": "Wallisellen", "addr:housenumber": "4", "addr:postcode": "8304", "addr:street": "Seidenstrasse", "name": "Data Quest AG Corporate Business Unit", "opening_hours": "Mo-Fr 08:00-18:00", "shop": "electronics", "website": "https://www.dataquest.ch/filialen/info/corporate-business-unit", "wheelchair": "yes"}}, {"type": "node", "id": 4237467999, "lat": 47.3514834, "lon": 8.5316767, "tags": {"level": "0", "name": "novelec.ch", "shop": "electronics"}}, {"type": "node", "id": 4244051797, "lat": 47.5436544, "lon": 7.592609, "tags": {"addr:city": "Basel", "addr:housenumber": "179", "addr:postcode": "4053", "addr:street": "G\u00fcterstrasse", "alt_name": "Interdiscount Gundeli", "branch": "Basel Gundeli", "brand": "Interdiscount", "brand:wikidata": "Q1665980", "name": "Interdiscount", "opening_hours": "Mo-Fr 09:00-18:30; Th 09:00-19:00; Sa 09:00-17:00", "operator": "Coop Genossenschaft", "shop": "electronics", "website": "https://www.interdiscount.ch/"}}, {"type": "node", "id": 4253877122, "lat": 46.7794367, "lon": 7.6341544, "tags": {"addr:city": "Steffisburg", "addr:country": "CH", "addr:housenumber": "16", "addr:postcode": "3612", "addr:street": "Oberdorfstrasse", "name": "Gfeller & Huber", "opening_hours": "Mo-Tu 09:00-12:00, 14:00-18:30; We off; Th-Fr 09:00-12:00, 14:00-18:30; Sa 09:00-16:00; Su off", "phone": "+41 33 437 23 93", "shop": "electronics", "website": "http://gfellerhuber.ch"}}, {"type": "node", "id": 4264443410, "lat": 47.4581938, "lon": 8.3300109, "tags": {"addr:city": "Wettingen", "addr:housenumber": "42", "addr:postcode": "5430", "addr:street": "Jurastrasse", "alt_name": "Interdiscount Wettingen", "branch": "Wettingen", "brand": "Interdiscount", "brand:wikidata": "Q1665980", "level": "0", "name": "Interdiscount", "operator": "Coop Genossenschaft", "shop": "electronics", "website": "https://www.interdiscount.ch/"}}, {"type": "node", "id": 4264443598, "lat": 47.4582835, "lon": 8.3306902, "tags": {"addr:housenumber": "48", "addr:street": "Jurastrasse", "alt_name": "Fust T\u00e4gipark", "branch": "Wettingen T\u00e4gipark", "brand:wikidata": "Q1227164", "level": "0", "name": "Fust", "operator": "Dipl. Ing. Fust AG", "operator:wikidata": "Q1227164", "shop": "electronics"}}, {"type": "node", "id": 4270135421, "lat": 47.511708, "lon": 9.4311345, "tags": {"addr:city": "Arbon", "addr:housenumber": "11", "addr:postcode": "9320", "addr:street": "St. Gallerstrasse", "alt_name": "Interdiscount Arbon", "branch": "Arbon", "brand": "Interdiscount", "brand:wikidata": "Q1665980", "name": "Interdiscount", "operator": "Coop Genossenschaft", "shop": "electronics", "website": "https://www.interdiscount.ch/"}}, {"type": "node", "id": 4319218336, "lat": 46.8937562, "lon": 7.4992837, "tags": {"addr:housenumber": "12", "addr:postcode": "3123", "addr:street": "Dorfstrasse", "name": "Energie Belp", "shop": "electronics"}}, {"type": "node", "id": 4321191127, "lat": 46.9150111, "lon": 7.4675136, "tags": {"addr:housenumber": "95", "addr:postcode": "3122", "addr:street": "Bernstrasse", "description": "Anbieter von Audiovisuellen Ger\u00e4ten", "name": "Kilchenmann AG", "opening_hours": "Mo-Fr 08:00-12:00, 13:00-17:00", "phone": "+4131 963 15 15", "shop": "electronics", "website": "https://www.kilchenmann.ch"}}, {"type": "node", "id": 4326907634, "lat": 46.8913258, "lon": 7.5002615, "tags": {"alt_name": "proNet engineering", "contact:addr": "Mittelstrasse 2, 3123 Belp", "contact:phone": "+41 31 8120460", "contact:website": "http://www.pronet-engineering.ch/page1/page1.php", "name": "proNet", "operator": "proNet engineering GmbH", "shop": "electronics", "website": "http://www.pronet-engineering.ch"}}, {"type": "node", "id": 4334368293, "lat": 47.0456724, "lon": 8.3161339, "tags": {"addr:housenumber": "8 - 12", "addr:postcode": "6005", "email": "info@schurter.ch", "name": "Schurter AG", "opening_hours": "Mo-Fr 07:45-17:00", "phone": "+41 41 369 31 11", "shop": "electronics", "website": "https://www.schurter.ch/"}}, {"type": "node", "id": 4352729392, "lat": 47.5490966, "lon": 9.3049858, "tags": {"name": "Elektro H\u00e4uselmann AG", "shop": "electronics"}}, {"type": "node", "id": 4358576594, "lat": 46.1808041, "lon": 6.1279708, "tags": {"addr:housenumber": "10", "addr:postcode": "1227", "addr:street": "Route des Jeunes", "brand": "Fust", "brand:wikidata": "Q1227164", "brand:wikipedia": "de:Dipl. Ing. Fust", "name": "Fust", "shop": "electronics"}}, {"type": "node", "id": 4358622991, "lat": 46.2219542, "lon": 6.0680385, "tags": {"addr:postcode": "1217", "name": "Electroplast SA", "opening_hours": "Mo-Fr 07:00-12:00, 13:00-17:00", "phone": "+41227825556", "shop": "electronics", "website": "http://electroplast.ch"}}, {"type": "node", "id": 4361192189, "lat": 46.2250784, "lon": 6.0775914, "tags": {"addr:housenumber": "17", "addr:postcode": "1217", "addr:street": "Rue du Bois-du-Lan", "name": "Style Cuisine", "phone": "+41791240409", "shop": "electronics", "website": "http://www.stylecuisine.ch"}}, {"type": "node", "id": 4365242591, "lat": 46.2200779, "lon": 6.0792707, "tags": {"addr:street": "Chemin de l'Emeraude", "name": "D\u00e9p\u00f4t TEK", "shop": "electronics"}}, {"type": "node", "id": 4368514198, "lat": 47.5434722, "lon": 9.2737147, "tags": {"addr:city": "Amriswil", "addr:country": "CH", "addr:housenumber": "8", "addr:postcode": "8580", "addr:street": "Im Vorland", "email": "info@medialoft.ch", "internet_access": "wlan", "name": "MediaLoft", "name:de": "medialoft", "opening_hours": "Tu-Fr 09:00-12:00, 13:30-18:00; Sa 09:00-16:00", "phone": "+41 71 420 06 00", "shop": "electronics", "website": "http://www.medialoft.ch"}}, {"type": "node", "id": 4373217989, "lat": 46.5863388, "lon": 7.6473812, "tags": {"addr:housenumber": "21", "addr:street": "Kanderstegstrasse", "name": "H\u00f6rberatung Frutigen", "name:de": "H\u00f6rberatung Frutigen", "opening_hours": "08:30-12:00,13:30-17:30", "shop": "electronics", "wheelchair": "yes"}}, {"type": "node", "id": 4379763120, "lat": 47.4970469, "lon": 8.7532223, "tags": {"addr:housenumber": "13", "addr:street": "Industriestrasse", "branch": "Winterthur Gr\u00fcze", "brand:wikidata": "Q1227164", "name": "Fust", "opening_hours": "Mo-Fr 09:00-20:00; Sa 09:00-18:00; PH off", "operator": "Dipl. Ing. Fust AG", "shop": "electronics"}}, {"type": "node", "id": 4379763127, "lat": 47.494974, "lon": 8.7579734, "tags": {"addr:city": "Winterthur", "addr:housenumber": "19", "addr:postcode": "8404", "addr:street": "Rudolf-Diesel-Strasse", "alt_name": "Interdiscount Gr\u00fcze Markt", "branch": "Winterthur Gr\u00fcze", "brand": "Interdiscount", "brand:wikidata": "Q1665980", "brand:wikipedia": "de:Interdiscount", "name": "Interdiscount", "opening_hours": "Mo-Sa 09:00-20:00; PH off", "operator": "Coop Genossenschaft", "shop": "electronics", "website": "https://www.interdiscount.ch/"}}, {"type": "node", "id": 4395329586, "lat": 47.4858827, "lon": 8.7567639, "tags": {"name": "Redbuy.ch", "shop": "electronics"}}, {"type": "node", "id": 4397516904, "lat": 46.1882479, "lon": 6.1326287, "tags": {"addr:housenumber": "32", "addr:postcode": "1227", "addr:street": "Rue des Noirettes", "name": "Hoovernez", "phone": "+41223436252", "shop": "electronics", "website": "http://www.hoovernez-electromenager.ch"}}, {"type": "node", "id": 4397690692, "lat": 46.2455124, "lon": 6.2077012, "tags": {"addr:housenumber": "114", "addr:postcode": "1222", "addr:street": "Route de Thonon", "name": "Ch. Schaub SA", "phone": "+41228559646", "shop": "electronics", "website": "http://www.scaubsa.ch"}}, {"type": "node", "id": 4420328780, "lat": 47.1309715, "lon": 7.2426364, "tags": {"brand": "Interdiscount", "brand:wikidata": "Q1665980", "brand:wikipedia": "de:Interdiscount", "name": "Interdiscount", "opening_hours": "Mo-Th 09:00-20:00; Fr 09:00-21:00; Sa 08:30-17:00", "shop": "electronics", "wheelchair": "yes"}}, {"type": "node", "id": 4424654352, "lat": 47.3787435, "lon": 8.5389675, "tags": {"addr:city": "Z\u00fcrich", "addr:country": "CH", "addr:place": "Hauptbahnhof, Halle Landesmuseum", "addr:postcode": "8001", "alt_name": "Fust HB", "branch": "Z\u00fcrich HB", "brand": "Fust", "brand:wikidata": "Q1227164", "brand:wikipedia": "de:Dipl. Ing. Fust", "level": "-2", "name": "Fust", "opening_hours": "Mo-Fr 09:00-21:00; Sa-Su 09:00-20:00", "operator": "Dipl. Ing. Fust AG", "shop": "electronics", "website": "https://www.fust.ch/"}}, {"type": "node", "id": 4424654355, "lat": 47.3788827, "lon": 8.5393618, "tags": {"addr:city": "Z\u00fcrich", "addr:country": "CH", "addr:place": "Hauptbahnhof, Halle Landesmuseum", "addr:postcode": "8001", "alt_name": "Interdiscount Z\u00fcrich HB", "branch": "Z\u00fcrich HB Landesmuseum", "brand": "Interdiscount", "brand:wikidata": "Q1665980", "brand:wikipedia": "de:Interdiscount", "indoor": "yes", "level": "-2", "name": "Interdiscount", "opening_hours": "Mo-Fr 08:00-21:00; Sa-Su 09:00-20:00", "operator": "Coop Genossenschaft", "shop": "electronics", "website": "https://www.interdiscount.ch/"}}, {"type": "node", "id": 4424939150, "lat": 47.3771735, "lon": 8.5403533, "tags": {"addr:city": "Z\u00fcrich", "addr:country": "CH", "addr:place": "ShopVille", "addr:postcode": "8001", "alt_name": "Interdiscount ShopVille", "branch": "Z\u00fcrich ShopVille", "brand": "Interdiscount", "brand:wikidata": "Q1665980", "brand:wikipedia": "de:Interdiscount", "indoor": "yes", "level": "-1", "name": "Interdiscount", "opening_hours": "Mo-Fr 08:00-21:00; Sa-Su 09:00-20:00", "operator": "Coop Genossenschaft", "shop": "electronics", "website": "https://www.interdiscount.ch/", "wheelchair": "yes"}}, {"type": "node", "id": 4425102922, "lat": 46.2309579, "lon": 6.1080701, "tags": {"shop": "electronics"}}, {"type": "node", "id": 4427394077, "lat": 47.3406242, "lon": 8.0597651, "tags": {"name": "YAMPE GmbH", "payment:bitcoin": "yes", "shop": "electronics", "website": "http://www.yampe.com/"}}, {"type": "node", "id": 4444048716, "lat": 47.1341383, "lon": 7.2440086, "tags": {"addr:city": "Biel/Bienne", "addr:housenumber": "12", "addr:postcode": "2502", "addr:street": "Bahnhofstrasse", "addr:street:fr": "Rue de la Gare", "brand": "Interdiscount", "brand:wikidata": "Q1665980", "brand:wikipedia": "de:Interdiscount", "name": "Interdiscount", "opening_hours": "Mo-We,Fr 09:00-18:30; Th 09:00-21:00; Sa 09:00-17:00", "shop": "electronics", "wheelchair": "no"}}, {"type": "node", "id": 4449610684, "lat": 47.4128797, "lon": 8.6186771, "tags": {"addr:city": "Dietlikon", "addr:housenumber": "28", "addr:postcode": "8305", "addr:street": "Industriestrasse", "alt_name": "Interdiscount Dietlikon", "branch": "Dietlikon Industrie", "brand": "Interdiscount", "brand:wikidata": "Q1665980", "brand:wikipedia": "de:Interdiscount", "name": "Interdiscount", "operator": "Coop Genossenschaft", "shop": "electronics", "website": "https://www.interdiscount.ch/"}}, {"type": "node", "id": 4449610685, "lat": 47.4129856, "lon": 8.6183733, "tags": {"addr:housenumber": "28", "addr:street": "Industriestrasse", "alt_name": "Fust Dietlikon", "branch": "Dietlikon", "brand:wikidata": "Q1227164", "name": "Fust", "operator": "Dipl. Ing. Fust AG", "shop": "electronics"}}, {"type": "node", "id": 4459325714, "lat": 47.3853694, "lon": 8.5313994, "tags": {"addr:city": "Z\u00fcrich", "addr:country": "CH", "addr:housenumber": "152", "addr:postcode": "8005", "addr:street": "Limmatstrasse", "alt_name": "melectronics Limmatplatz", "branch": "Z\u00fcrich Limmatplatz", "brand": "melectronics", "brand:wikidata": "Q110276002", "internet_access": "wlan", "name": "melectronics", "opening_hours": "Mo-Fr 09:00-20:00; Sa 08:00-18:00", "operator": "Genossenschaft Migros Z\u00fcrich", "shop": "electronics", "website": "https://www.melectronics.ch/", "wheelchair": "yes"}}, {"type": "node", "id": 4471606840, "lat": 47.4933596, "lon": 8.7575516, "tags": {"addr:city": "Winterthur", "addr:housenumber": "20", "addr:postcode": "8404", "addr:street": "Rudolf-Diesel-Strasse", "alt_name": "Media Markt Gr\u00fcze", "branch": "Winterthur Gr\u00fcze", "brand": "MediaMarkt", "brand:wikidata": "Q2381223", "brand:wikipedia": "en:MediaMarkt", "name": "MediaMarkt", "opening_hours": "Mo-Fr 09:30-19:30; Sa 09:00-19:00; PH off", "operator": "Media Markt Schweiz", "shop": "electronics", "website": "https://www.mediamarkt.ch/", "wheelchair": "yes"}}, {"type": "node", "id": 4485467489, "lat": 47.3030498, "lon": 8.545406, "tags": {"addr:postcode": "8803", "name:en": "Heptagon Oy", "shop": "electronics", "website": "http://hptg.com"}}, {"type": "node", "id": 4486137547, "lat": 47.5189524, "lon": 8.7208673, "tags": {"addr:city": "Winterthur", "addr:housenumber": "152", "addr:postcode": "8400", "addr:street": "Schaffhauserstrasse", "alt_name": "Interdiscount Rosenberg", "branch": "Winterthur Rosenberg", "brand": "Interdiscount", "brand:wikidata": "Q1665980", "level": "1", "name": "Interdiscount", "opening_hours": "Mo-Sa 08:30-20:00", "operator": "Coop Genossenschaft", "phone": "+41 52 204 00 41", "shop": "electronics", "website": "https://www.interdiscount.ch/"}}, {"type": "node", "id": 4486137559, "lat": 47.5129209, "lon": 8.7223096, "tags": {"name": "Schellenberg", "shop": "electronics"}}, {"type": "node", "id": 4501234795, "lat": 47.4109757, "lon": 8.6093377, "tags": {"name": "Buchmann Direct Electronics", "shop": "electronics"}}, {"type": "node", "id": 4510255994, "lat": 46.9490832, "lon": 7.4539797, "tags": {"alt_name": "LED Center AG & LEDAG Elektrizit\u00e4t", "contact:addr": "Postgasshalde 41, 3011 Bern", "contact:email": "info@ledcenterbern.ch", "contact:phone": "+41 31 3113531", "name": "LED Center", "opening_hours": "Mo 14:00-18:30; Tu-Fr 10:00-12:00,14:00-18:30; Sa 10:00-12:00,14:00-16:00; Su off; PH off", "operator": "LED Center AG", "owner": "LED Center AG", "shop": "electronics", "source": "Survey and website", "website": "http://www.ledcenterbern.ch"}}, {"type": "node", "id": 4542843910, "lat": 47.033955, "lon": 8.4258631, "tags": {"name": "Digital Works", "shop": "electronics"}}, {"type": "node", "id": 4563470414, "lat": 47.5073051, "lon": 8.2286164, "tags": {"name": "Hima Kaffeemaschinen", "opening_hours": "Mo,Sa 08:00-11:30; Tu-Fr 08:00-11:30,13:30-18:00", "shop": "electronics"}}, {"type": "node", "id": 4565189640, "lat": 47.3873548, "lon": 8.1798279, "tags": {"name": "W\u00fcrgler", "shop": "electronics"}}, {"type": "node", "id": 4574896890, "lat": 46.8069801, "lon": 9.2587744, "tags": {"addr:city": "Laax", "addr:housenumber": "70", "addr:postcode": "7031", "addr:street": "Via Principala", "name": "Elektro Vincenz Sa", "name:de": "Elektro Vincenz Sa", "shop": "electronics"}}, {"type": "node", "id": 4577350992, "lat": 46.0045333, "lon": 8.9498525, "tags": {"addr:housenumber": "18", "name": "Art Computer", "shop": "electronics", "wheelchair": "yes"}},